{"ch\u00e2teau d'Autroche, near Orl\u00e9ans, Loir-et-Cher, France [0001]": {"City": "ch\u00e2teau d'Autroche, near Orl\u00e9ans", "PlaceName": "ch\u00e2teau d'Autroche, near Orl\u00e9ans", "Country": "France", "Region": "Loir-et-Cher", "FullName": "ch\u00e2teau d'Autroche, near Orl\u00e9ans, Loir-et-Cher, France", "_id": "ch\u00e2teau d'Autroche, near Orl\u00e9ans, Loir-et-Cher, France [0001]", "InLocationDB": true}, "Tarascon, Bouches-du-Rh\u00f4ne, France [0001]": {"City": "Tarascon", "PlaceName": "Tarascon", "Country": "France", "Region": "Bouches-du-Rh\u00f4ne", "FullName": "Tarascon, Bouches-du-Rh\u00f4ne, France", "_id": "Tarascon, Bouches-du-Rh\u00f4ne, France [0001]", "InLocationDB": true}, "Richelieu, Indre-et-Loire, France [0001]": {"City": "\ufeffRichelieu", "PlaceName": "Richelieu", "Country": "France", "InLocationDB": "TRUE", "lon": "", "Coords": "47.01389,0.32406", "lat": "", "FullName": "Richelieu, Indre-et-Loire, France", "Region": "Indre-et-Loire", "id": "Richelieu, Indre-et-Loire, France [0001]"}, "Champs-sur-Marne, Seine-et-Marne, France [0001]": {"City": "\ufeffChamps-sur-Marne", "PlaceName": "Champs-sur-Marne", "Country": "France", "InLocationDB": "TRUE", "lon": "", "Coords": "48.85,2.6", "lat": "", "FullName": "Champs-sur-Marne, Seine-et-Marne, France", "Region": "Seine-et-Marne", "id": "Champs-sur-Marne, Seine-et-Marne, France [0001]"}, "Quito, Pichincha, Ecuador [0001]": {"City": "\ufeffQuito", "PlaceName": "Quito", "Country": "Ecuador", "InLocationDB": "TRUE", "lon": "-78.52428", "Coords": "-0.22950000,-78.52428000", "lat": "-0.2295", "FullName": "Quito, Pichincha, Ecuador", "Region": "Pichincha", "id": "Quito, Pichincha, Ecuador [0001]"}, "Passy, Paris, Ile-de-France, France [0001]": {"City": "\ufeffPassy, Paris", "PlaceName": "Passy, Paris", "Country": "France", "InLocationDB": "TRUE", "lon": "2.35099", "Coords": "48.85667000,2.35099000", "lat": "48.85667", "FullName": "Passy, Paris, Ile-de-France, France", "Region": "Ile-de-France", "id": "Passy, Paris, Ile-de-France, France [0001]"}, "Beaugency, Loiret, France [0001]": {"City": "Beaugency", "PlaceName": "Beaugency", "Country": "France", "Region": "Loiret", "FullName": "Beaugency, Loiret, France", "_id": "Beaugency, Loiret, France [0001]", "InLocationDB": true}, "Zerbst, Saxony-Anhalt, Germany [0001]": {"City": "Zerbst", "PlaceName": "Zerbst", "Country": "Germany", "InLocationDB": true, "lon": 12.08471, "Coords": "51.96713000,12.08471000", "lat": 51.96713, "FullName": "Zerbst, Saxony-Anhalt, Germany", "_id": "Zerbst, Saxony-Anhalt, Germany [0001]", "Region": "Saxony-Anhalt"}, "ch\u00e2teau de Renan, canton of Bern, Switzerland [0001]": {"City": "ch\u00e2teau de Renan", "PlaceName": "ch\u00e2teau de Renan", "Country": "Switzerland", "Region": "canton of Bern", "FullName": "ch\u00e2teau de Renan, canton of Bern, Switzerland", "_id": "ch\u00e2teau de Renan, canton of Bern, Switzerland [0001]", "InLocationDB": true}, "Aramon, Gard, France [0001]": {"City": "Aramon", "PlaceName": "Aramon", "Country": "France", "Region": "Gard", "FullName": "Aramon, Gard, France", "_id": "Aramon, Gard, France [0001]", "InLocationDB": true}, "Vosges, France [0001]": {"City": "\ufeff", "PlaceName": "Vosges", "Country": "France", "InLocationDB": "TRUE", "lon": "", "Coords": "48.16667,6.33333", "lat": "", "FullName": "Vosges, France", "Region": "Vosges", "id": "Vosges, France [0001]"}, "Prangins, canton of Vaud, Switzerland [0001]": {"City": "Prangins", "PlaceName": "Prangins", "Country": "Switzerland", "InLocationDB": true, "lon": 6.25, "Coords": "46.40000000,6.25000000", "lat": 46.4, "FullName": "Prangins, canton of Vaud, Switzerland", "_id": "Prangins, canton of Vaud, Switzerland [0001]", "Region": "canton of Vaud"}, "Portsmouth, Hampshire, England [0001]": {"City": "Portsmouth", "PlaceName": "Portsmouth", "Country": "England", "InLocationDB": true, "lon": -1.087284, "Coords": "50.80401000,-1.08728400", "lat": 50.80401, "FullName": "Portsmouth, Hampshire, England", "_id": "Portsmouth, Hampshire, England [0001]", "Region": "Hampshire"}, "Basle, Basel-Stadt, Switzerland [0001]": {"City": "\ufeffBasle", "PlaceName": "Basle", "Country": "Switzerland", "InLocationDB": "TRUE", "lon": "", "Coords": "47.5584,7.57327", "lat": "", "FullName": "Basle, Basel-Stadt, Switzerland", "Region": "Basel-Stadt", "id": "Basle, Basel-Stadt, Switzerland [0001]"}, "Vic-sur-Aisne, Aisne, France [0001]": {"City": "Vic-sur-Aisne", "PlaceName": "Vic-sur-Aisne", "Country": "France", "Region": "Aisne", "FullName": "Vic-sur-Aisne, Aisne, France", "_id": "Vic-sur-Aisne, Aisne, France [0001]", "InLocationDB": true}, "B\u00fcckeburg, Lower Saxony, Germany [0001]": {"City": "B\u00fcckeburg", "PlaceName": "B\u00fcckeburg", "Country": "Germany", "Region": "Lower Saxony", "FullName": "B\u00fcckeburg, Lower Saxony, Germany", "_id": "B\u00fcckeburg, Lower Saxony, Germany [0001]", "InLocationDB": true}, "Charlottenburg, Berlin, state of Berlin, Germany [0001]": {"City": "\ufeffCharlottenburg Palace, Berlin", "PlaceName": "Charlottenburg, Berlin", "Country": "Germany", "InLocationDB": "TRUE", "lon": "", "Coords": "52.521111,\u00a013.295833", "lat": "", "FullName": "Charlottenburg, Berlin, state of Berlin, Germany", "Region": "state of Berlin", "id": "Charlottenburg, Berlin, state of Berlin, Germany [0001]"}, "St-Sulpice-de-Guilleragues, Gironde, France [0001]": {"City": "St-Sulpice-de-Guilleragues", "PlaceName": "St-Sulpice-de-Guilleragues", "Country": "France", "Region": "Gironde", "FullName": "St-Sulpice-de-Guilleragues, Gironde, France", "_id": "St-Sulpice-de-Guilleragues, Gironde, France [0001]", "InLocationDB": true}, "Germany [0001]": {"PlaceName": "Germany", "Country": "Germany", "InLocationDB": true, "lon": 9.49601, "Coords": "51.31893000,9.49601000", "lat": 51.31893, "FullName": "Germany", "_id": "Germany [0001]"}, "Roches, canton of Bern, Switzerland [0001]": {"City": "\ufeffRoches", "PlaceName": "Roches", "Country": "Switzerland", "InLocationDB": "TRUE", "lon": "", "Coords": "47.302,7.381", "lat": "", "FullName": "Roches, canton of Bern, Switzerland", "Region": "canton of Bern", "id": "Roches, canton of Bern, Switzerland [0001]"}, "Haltern, North Rhine-Westphalia, Germany [0001]": {"City": "Haltern", "PlaceName": "Haltern", "Country": "Germany", "Region": "North Rhine-Westphalia", "FullName": "Haltern, North Rhine-Westphalia, Germany", "_id": "Haltern, North Rhine-Westphalia, Germany [0001]", "InLocationDB": true}, "Bar-le-Duc, Meuse, France [0001]": {"City": "\ufeffBar-le-Duc", "PlaceName": "Bar-le-Duc", "Country": "France", "InLocationDB": "TRUE", "lon": "", "Coords": "48.78333,5.16667", "lat": "", "FullName": "Bar-le-Duc, Meuse, France", "Region": "Meuse", "id": "Bar-le-Duc, Meuse, France [0001]"}, "Ch\u00e2teau de Vincy, canton of Vaud, Switzerland [0001]": {"City": "Ch\u00e2teau de Vincy", "PlaceName": "Ch\u00e2teau de Vincy", "Country": "Switzerland", "Region": "canton of Vaud", "FullName": "Ch\u00e2teau de Vincy, canton of Vaud, Switzerland", "_id": "Ch\u00e2teau de Vincy, canton of Vaud, Switzerland [0001]", "InLocationDB": true}, "Cap-Ha\u00eftien, Nord, Haiti [0001]": {"City": "Cap-Ha\u00eftien", "PlaceName": "Cap-Ha\u00eftien", "Country": "Haiti", "Region": "Nord", "FullName": "Cap-Ha\u00eftien, Nord, Haiti", "_id": "Cap-Ha\u00eftien, Nord, Haiti [0001]", "InLocationDB": true}, "Nyon, canton of Vaud, Switzerland [0001]": {"City": "\ufeffNyon", "PlaceName": "Nyon", "Country": "Switzerland", "InLocationDB": "TRUE", "lon": "", "Coords": "46.38318,6.23955", "lat": "", "FullName": "Nyon, canton of Vaud, Switzerland", "Region": "canton of Vaud", "id": "Nyon, canton of Vaud, Switzerland [0001]"}, "Yasnaya Polyana, Kaliningrad province, Russia [0001]": {"City": "\ufeffYasnaya Polyana", "PlaceName": "Yasnaya Polyana", "Country": "Russia", "InLocationDB": "TRUE", "lon": "", "Coords": "54.076111,\u00a037.526111", "lat": "", "FullName": "Yasnaya Polyana, Kaliningrad province, Russia", "Region": "Kaliningrad province", "id": "Yasnaya Polyana, Kaliningrad province, Russia [0001]"}, "Pondicherry, Puducherry, India [0001]": {"City": "Pondicherry", "PlaceName": "Pondicherry", "Country": "India", "Region": "Puducherry", "FullName": "Pondicherry, Puducherry, India", "_id": "Pondicherry, Puducherry, India [0001]", "InLocationDB": true}, "Rheinsberg, Brandenburg, Germany [0001]": {"City": "\ufeffRheinsberg", "PlaceName": "Rheinsberg", "Country": "Germany", "InLocationDB": "TRUE", "lon": "", "Coords": "53.098333, 12.895833", "lat": "", "FullName": "Rheinsberg, Brandenburg, Germany", "Region": "Brandenburg", "id": "Rheinsberg, Brandenburg, Germany [0001]"}, "Bergamo, Lombardy, Italy [0001]": {"City": "Bergamo", "PlaceName": "Bergamo", "Country": "Italy", "InLocationDB": true, "lon": 9.66948, "Coords": "45.69522000,9.66948000", "lat": 45.69522, "FullName": "Bergamo, Lombardy, Italy", "_id": "Bergamo, Lombardy, Italy [0001]", "Region": "Lombardy"}, "St Genis, Ain, France [0001]": {"City": "St Genis", "PlaceName": "St Genis", "Country": "France", "Region": "Ain", "FullName": "St Genis, Ain, France", "_id": "St Genis, Ain, France [0001]", "InLocationDB": true}, "Nysa, Opole, Poland [0001]": {"City": "\ufeffNysa", "PlaceName": "Nysa", "Country": "Poland", "InLocationDB": "TRUE", "lon": "", "Coords": "50.47379,17.33437", "lat": "", "FullName": "Nysa, Opole, Poland", "Region": "Opole", "id": "Nysa, Opole, Poland [0001]"}, "Marimond, Bourgogne region, France [0001]": {"City": "\ufeffMarimond", "PlaceName": "Marimond", "Country": "France", "InLocationDB": "TRUE", "lon": "", "Coords": "", "lat": "", "FullName": "Marimond, Bourgogne region, France", "Region": "Bourgogne region", "id": "Marimond, Bourgogne region, France [0001]"}, "ch\u00e2teau de Vor\u00e9, Perche, France [0001]": {"City": "ch\u00e2teau de Vor\u00e9", "PlaceName": "ch\u00e2teau de Vor\u00e9", "Country": "France", "Region": "Perche", "FullName": "ch\u00e2teau de Vor\u00e9, Perche, France", "_id": "ch\u00e2teau de Vor\u00e9, Perche, France [0001]", "InLocationDB": true}, "Montauban, Tarn-et-Garonne, France [0001]": {"City": "Montauban", "PlaceName": "Montauban", "Country": "France", "InLocationDB": true, "lon": 1.35221, "Coords": "44.01676000,1.35221000", "lat": 44.01676, "FullName": "Montauban, Tarn-et-Garonne, France", "_id": "Montauban, Tarn-et-Garonne, France [0001]", "Region": "Tarn-et-Garonne"}, "Yverdon-les-Bains, canton of Vaud, Switzerland [0001]": {"City": "Yverdon-les-Bains", "PlaceName": "Yverdon-les-Bains", "Country": "Switzerland", "Region": "canton of Vaud", "FullName": "Yverdon-les-Bains, canton of Vaud, Switzerland", "_id": "Yverdon-les-Bains, canton of Vaud, Switzerland [0001]", "InLocationDB": true}, "Lyon, Rh\u00f4ne, France [0001]": {"City": "Lyon", "PlaceName": "Lyon", "Country": "France", "Region": "Rh\u00f4ne", "FullName": "Lyon, Rh\u00f4ne, France", "_id": "Lyon, Rh\u00f4ne, France [0001]", "InLocationDB": true}, "Tonnerre, Yonne, France [0001]": {"City": "Tonnerre", "PlaceName": "Tonnerre", "Country": "France", "Region": "Yonne", "FullName": "Tonnerre, Yonne, France", "_id": "Tonnerre, Yonne, France [0001]", "InLocationDB": true}, "Dublin, county Dublin, Ireland [0001]": {"City": "Dublin", "PlaceName": "Dublin", "Country": "Ireland", "InLocationDB": true, "lon": -6.249529, "Coords": "53.34376500,-6.24952900", "lat": 53.343765, "FullName": "Dublin, county Dublin, Ireland", "_id": "Dublin, county Dublin, Ireland [0001]", "Region": "county Dublin"}, "Reims, Marne, France [0001]": {"City": "\ufeffReims", "PlaceName": "Reims", "Country": "France", "InLocationDB": "TRUE", "lon": "", "Coords": "49.25,4.03333", "lat": "", "FullName": "Reims, Marne, France", "Region": "Marne", "id": "Reims, Marne, France [0001]"}, "Gravelines, Flandre, France [0001]": {"City": "\ufeffGravelines", "PlaceName": "Gravelines", "Country": "France", "InLocationDB": "TRUE", "lon": "", "Coords": "50.98651,2.12807", "lat": "", "FullName": "Gravelines, Flandre, France", "Region": "Flandre", "id": "Gravelines, Flandre, France [0001]"}, "Milan, Lombardy, Italy [0001]": {"City": "Milan", "PlaceName": "Milan", "Country": "Italy", "InLocationDB": true, "lon": 9.18103, "Coords": "45.46895000,9.18103000", "lat": 45.46895, "FullName": "Milan, Lombardy, Italy", "_id": "Milan, Lombardy, Italy [0001]", "Region": "Lombardy"}, "Payerne, canton of Vaud, Switzerland [0001]": {"City": "Payerne", "PlaceName": "Payerne", "Country": "Switzerland", "Region": "canton of Vaud", "FullName": "Payerne, canton of Vaud, Switzerland", "_id": "Payerne, canton of Vaud, Switzerland [0001]", "InLocationDB": true}, "Wesel, North Rhine-Westphalia, Germany [0001]": {"City": "\ufeffWesel", "PlaceName": "Wesel", "Country": "Germany", "InLocationDB": "TRUE", "lon": "", "Coords": "51.66667,6.61667", "lat": "", "FullName": "Wesel, North Rhine-Westphalia, Germany", "Region": "North Rhine-Westphalia", "id": "Wesel, North Rhine-Westphalia, Germany [0001]"}, "Rouen, Seine-Maritime, France [0001]": {"City": "\ufeffRouen", "PlaceName": "Rouen", "Country": "France", "InLocationDB": "TRUE", "lon": "1.08933", "Coords": "49.44038000,1.08933000", "lat": "49.44038", "FullName": "Rouen, Seine-Maritime, France", "Region": "Seine-Maritime", "id": "Rouen, Seine-Maritime, France [0001]"}, "St Claude, Jura, France [0001]": {"City": "St Claude", "PlaceName": "St Claude", "Country": "France", "Region": "Jura", "FullName": "St Claude, Jura, France", "_id": "St Claude, Jura, France [0001]", "InLocationDB": true}, "Przedwoj\u00f3w/Reichhennersdorf, Lower Silesia, Poland [0001]": {"City": "Przedwoj\u00f3w/Reichhennersdorf", "PlaceName": "Przedwoj\u00f3w/Reichhennersdorf", "Country": "Poland", "Region": "Lower Silesia", "FullName": "Przedwoj\u00f3w/Reichhennersdorf, Lower Silesia, Poland", "_id": "Przedwoj\u00f3w/Reichhennersdorf, Lower Silesia, Poland [0001]", "InLocationDB": true}, "Vienne, Is\u00e8re, France [0001]": {"City": "Vienne", "PlaceName": "Vienne", "Country": "France", "InLocationDB": true, "lon": 4.87233, "Coords": "45.52209000,4.87233000", "lat": 45.52209, "FullName": "Vienne, Is\u00e8re, France", "_id": "Vienne, Is\u00e8re, France [0001]", "Region": "Is\u00e8re"}, "Gournay-sur-Marne, Seine-Saint-Denis, France [0001]": {"City": "Gournay-sur-Marne", "PlaceName": "Gournay-sur-Marne", "Country": "France", "InLocationDB": true, "lon": 2.57528, "Coords": "48.86373000,2.57528000", "lat": 48.86373, "FullName": "Gournay-sur-Marne, Seine-Saint-Denis, France", "_id": "Gournay-sur-Marne, Seine-Saint-Denis, France [0001]", "Region": "Seine-Saint-Denis"}, "near Plombi\u00e8res-les-Bains, Vosges, France [0001]": {"City": "near Plombi\u00e8res-les-Bains", "PlaceName": "near Plombi\u00e8res-les-Bains", "Country": "France", "Region": "Vosges", "FullName": "near Plombi\u00e8res-les-Bains, Vosges, France", "_id": "near Plombi\u00e8res-les-Bains, Vosges, France [0001]", "InLocationDB": true}, "St-Hubert, province of Luxembourg, Belgium [0001]": {"City": "St-Hubert", "PlaceName": "St-Hubert", "Country": "Belgium", "Region": "province of Luxembourg", "FullName": "St-Hubert, province of Luxembourg, Belgium", "_id": "St-Hubert, province of Luxembourg, Belgium [0001]", "InLocationDB": true}, "Murten/Morat, canton of Fribourg, Switzerland [0001]": {"City": "\ufeffMurten/Morat", "PlaceName": "Murten/Morat", "Country": "Switzerland", "InLocationDB": "TRUE", "lon": "", "Coords": "46.92827,7.11715", "lat": "", "FullName": "Murten/Morat, canton of Fribourg, Switzerland", "Region": "canton of Fribourg", "id": "Murten/Morat, canton of Fribourg, Switzerland [0001]"}, "Morges, canton of Vaud, Switzerland [0001]": {"City": "\ufeffMorges", "PlaceName": "Morges", "Country": "Switzerland", "InLocationDB": "TRUE", "lon": "", "Coords": "46.51127,6.49854", "lat": "", "FullName": "Morges, canton of Vaud, Switzerland", "Region": "canton of Vaud", "id": "Morges, canton of Vaud, Switzerland [0001]"}, "Le Plessis-Belleville, Oise, France [0001]": {"City": "Le Plessis-Belleville", "PlaceName": "Le Plessis-Belleville", "Country": "France", "Region": "Oise", "FullName": "Le Plessis-Belleville, Oise, France", "_id": "Le Plessis-Belleville, Oise, France [0001]", "InLocationDB": true}, "Sancoins, Cher, France [0001]": {"City": "Sancoins", "PlaceName": "Sancoins", "Country": "France", "Region": "Cher", "FullName": "Sancoins, Cher, France", "_id": "Sancoins, Cher, France [0001]", "InLocationDB": true}, "Gex, Ain, France [0001]": {"City": "\ufeffGex", "PlaceName": "Gex", "Country": "France", "InLocationDB": "TRUE", "lon": "", "Coords": "46.33333,6.06667", "lat": "", "FullName": "Gex, Ain, France", "Region": "Ain", "id": "Gex, Ain, France [0001]"}, "Solothurn/Soleure, canton of Solothurn, Switzerland [0001]": {"City": "\ufeffSolothurn/Soleure", "PlaceName": "Solothurn/Soleure", "Country": "Switzerland", "InLocationDB": "TRUE", "lon": "", "Coords": "47.208,7.537", "lat": "", "FullName": "Solothurn/Soleure, canton of Solothurn, Switzerland", "Region": "canton of Solothurn", "id": "Solothurn/Soleure, canton of Solothurn, Switzerland [0001]"}, "La Roche-Guyon, Val-d'Oise, France [0001]": {"City": "\ufeffLa Roche-Guyon", "PlaceName": "La Roche-Guyon", "Country": "France", "InLocationDB": "TRUE", "lon": "1.63036", "Coords": "49.08144000,1.63036000", "lat": "49.08144", "FullName": "La Roche-Guyon, Val-d'Oise, France", "Region": "Val-d'Oise", "id": "La Roche-Guyon, Val-d'Oise, France [0001]"}, "Huningue, Haut-Rhin, France [0001]": {"City": "\ufeffHuningue", "PlaceName": "Huningue", "Country": "France", "InLocationDB": "TRUE", "lon": "", "Coords": "47.60477,7.57782", "lat": "", "FullName": "Huningue, Haut-Rhin, France", "Region": "Haut-Rhin", "id": "Huningue, Haut-Rhin, France [0001]"}, "Vabern, near Cassel, Hesse, Germany [0001]": {"City": "\ufeffVabern, near Cassel", "PlaceName": "Vabern, near Cassel", "Country": "Germany", "InLocationDB": "TRUE", "lon": "", "Coords": "50.43333,7.06667", "lat": "", "FullName": "Vabern, near Cassel, Hesse, Germany", "Region": "Hesse", "id": "Vabern, near Cassel, Hesse, Germany [0001]"}, "Kazan, Republic of Tatarstan, Russia [0001]": {"City": "\ufeffKazan", "PlaceName": "Kazan", "Country": "Russia", "InLocationDB": "TRUE", "lon": "", "Coords": "55.78874,49.12214", "lat": "", "FullName": "Kazan, Republic of Tatarstan, Russia", "Region": "Republic of Tatarstan", "id": "Kazan, Republic of Tatarstan, Russia [0001]"}, "Leiden, South Holland, Netherlands [0001]": {"City": "\ufeffLeiden", "PlaceName": "Leiden", "Country": "Netherlands", "InLocationDB": "TRUE", "lon": "", "Coords": "52.15833,4.49306", "lat": "", "FullName": "Leiden, South Holland, Netherlands", "Region": "South Holland", "id": "Leiden, South Holland, Netherlands [0001]"}, "near Geneva, canton of Geneva, Switzerland [0001]": {"City": "\ufeffnear Geneva", "PlaceName": "near Geneva", "Country": "Switzerland", "InLocationDB": "TRUE", "lon": "", "Coords": "46.20222,6.14569", "lat": "", "FullName": "near Geneva, canton of Geneva, Switzerland", "Region": "canton of Geneva", "id": "near Geneva, canton of Geneva, Switzerland [0001]"}, "Halle, Saxony-Anhalt, Germany [0001]": {"City": "Halle", "PlaceName": "Halle", "Country": "Germany", "Region": "Saxony-Anhalt", "FullName": "Halle, Saxony-Anhalt, Germany", "_id": "Halle, Saxony-Anhalt, Germany [0001]", "InLocationDB": true}, "Montpellier, H\u00e9rault, France [0001]": {"City": "Montpellier", "PlaceName": "Montpellier", "Country": "France", "Region": "H\u00e9rault", "FullName": "Montpellier, H\u00e9rault, France", "_id": "Montpellier, H\u00e9rault, France [0001]", "InLocationDB": true}, "Rome, Lazio, Italy [0001]": {"City": "\ufeffRome", "PlaceName": "Rome", "Country": "Italy", "InLocationDB": "TRUE", "lon": "12.49576", "Coords": "41.90311000,12.49576000", "lat": "41.90311", "FullName": "Rome, Lazio, Italy", "Region": "Lazio", "id": "Rome, Lazio, Italy [0001]"}, "La Chabli\u00e8re, Lausanne, canton of Vaud, Switzerland [0001]": {"City": "La Chabli\u00e8re, Lausanne", "PlaceName": "La Chabli\u00e8re, Lausanne", "Country": "Switzerland", "Region": "canton of Vaud", "FullName": "La Chabli\u00e8re, Lausanne, canton of Vaud, Switzerland", "_id": "La Chabli\u00e8re, Lausanne, canton of Vaud, Switzerland [0001]", "InLocationDB": true}, "Rimini, Emilia-Romagna, Italy [0001]": {"City": "Rimini", "PlaceName": "Rimini", "Country": "Italy", "InLocationDB": true, "lon": 12.5667, "Coords": "44.05000000,12.56670000", "lat": 44.05, "FullName": "Rimini, Emilia-Romagna, Italy", "_id": "Rimini, Emilia-Romagna, Italy [0001]", "Region": "Emilia-Romagna"}, "ch\u00e2teau de Tournay, Pr\u00e9gny-Chamb\u00e9sy, canton of Geneva, Switzerland [0001]": {"City": "ch\u00e2teau de Tournay, Pr\u00e9gny-Chamb\u00e9sy", "PlaceName": "ch\u00e2teau de Tournay, Pr\u00e9gny-Chamb\u00e9sy", "Country": "Switzerland", "Region": "canton of Geneva", "FullName": "ch\u00e2teau de Tournay, Pr\u00e9gny-Chamb\u00e9sy, canton of Geneva, Switzerland", "_id": "ch\u00e2teau de Tournay, Pr\u00e9gny-Chamb\u00e9sy, canton of Geneva, Switzerland [0001]", "InLocationDB": true}, "Ancona, Marche, Italy [0001]": {"City": "Ancona", "PlaceName": "Ancona", "Country": "Italy", "InLocationDB": true, "lon": 13.5167, "Coords": "43.61670000,13.51670000", "lat": 43.6167, "FullName": "Ancona, Marche, Italy", "_id": "Ancona, Marche, Italy [0001]", "Region": "Marche"}, "Chernyakhovsk, Kaliningrad province, Russia [0001]": {"City": "\ufeffChernyakhovsk", "PlaceName": "Chernyakhovsk", "Country": "Russia", "InLocationDB": "TRUE", "lon": "", "Coords": "54.63345,21.81557", "lat": "", "FullName": "Chernyakhovsk, Kaliningrad province, Russia", "Region": "Kaliningrad province", "id": "Chernyakhovsk, Kaliningrad province, Russia [0001]"}, "Le Carla, Orsans, Aude, France [0001]": {"City": "Le Carla, Orsans", "PlaceName": "Le Carla, Orsans", "Country": "France", "Region": "Aude", "FullName": "Le Carla, Orsans, Aude, France", "_id": "Le Carla, Orsans, Aude, France [0001]", "InLocationDB": true}, "Corsier, canton of Geneva, Switzerland [0001]": {"City": "Corsier", "PlaceName": "Corsier", "Country": "Switzerland", "Region": "canton of Geneva", "FullName": "Corsier, canton of Geneva, Switzerland", "_id": "Corsier, canton of Geneva, Switzerland [0001]", "InLocationDB": true}, "Chouilly, Marne, France [0001]": {"City": "\ufeffChouilly", "PlaceName": "Chouilly", "Country": "France", "InLocationDB": "TRUE", "lon": "", "Coords": "49.0253,4.01426", "lat": "", "FullName": "Chouilly, Marne, France", "Region": "Marne", "id": "Chouilly, Marne, France [0001]"}, "Annemasse, Haute-Savoie, France [0001]": {"City": "\ufeffAnnemasse", "PlaceName": "Annemasse", "Country": "France", "InLocationDB": "TRUE", "lon": "", "Coords": "46.19439,6.23775", "lat": "", "FullName": "Annemasse, Haute-Savoie, France", "Region": "Haute-Savoie", "id": "Annemasse, Haute-Savoie, France [0001]"}, "Mousson, Aube, France [0001]": {"City": "\ufeffMousson", "PlaceName": "Mousson", "Country": "France", "InLocationDB": "TRUE", "lon": "", "Coords": "48.33283,4.03782", "lat": "", "FullName": "Mousson, Aube, France", "Region": "Aube", "id": "Mousson, Aube, France [0001]"}, "Bois de Vaud, canton of Vaud, Switzerland [0001]": {"City": "\ufeffBois de Vaud", "PlaceName": "Bois de Vaud", "Country": "Switzerland", "InLocationDB": "TRUE", "lon": "", "Coords": "46.31692,6.1367", "lat": "", "FullName": "Bois de Vaud, canton of Vaud, Switzerland", "Region": "canton of Vaud", "id": "Bois de Vaud, canton of Vaud, Switzerland [0001]"}, "St Petersburg, Leningrad province, Russia [0001]": {"City": "\ufeffSt Petersburg", "PlaceName": "St Petersburg", "Country": "Russia", "InLocationDB": "TRUE", "lon": "", "Coords": "59.89444,30.26417", "lat": "", "FullName": "St Petersburg, Leningrad province, Russia", "Region": "Leningrad province", "id": "St Petersburg, Leningrad province, Russia [0001]"}, "Langon, Gironde, France [0001]": {"City": "Langon", "PlaceName": "Langon", "Country": "France", "Region": "Gironde", "FullName": "Langon, Gironde, France", "_id": "Langon, Gironde, France [0001]", "InLocationDB": true}, "Angers, Maine-et-Loire, France [0001]": {"City": "Angers", "PlaceName": "Angers", "Country": "France", "InLocationDB": true, "lon": -0.55237, "Coords": "47.47131000,-0.55237000", "lat": 47.47131, "FullName": "Angers, Maine-et-Loire, France", "_id": "Angers, Maine-et-Loire, France [0001]", "Region": "Maine-et-Loire"}, "Choully, Marne, France [0001]": {"City": "\ufeffChoully", "PlaceName": "Choully", "Country": "France", "InLocationDB": "TRUE", "lon": "", "Coords": "49.0253,4.01426", "lat": "", "FullName": "Choully, Marne, France", "Region": "Marne", "id": "Choully, Marne, France [0001]"}, "Romans-sur-Is\u00e8re, Dr\u00f4me, France [0001]": {"City": "Romans-sur-Is\u00e8re", "PlaceName": "Romans-sur-Is\u00e8re", "Country": "France", "Region": "Dr\u00f4me", "FullName": "Romans-sur-Is\u00e8re, Dr\u00f4me, France", "_id": "Romans-sur-Is\u00e8re, Dr\u00f4me, France [0001]", "InLocationDB": true}, "Ch\u00e2teau-Thierry, Aisne, France [0001]": {"City": "Ch\u00e2teau-Thierry", "PlaceName": "Ch\u00e2teau-Thierry", "Country": "France", "InLocationDB": true, "lon": 3.4003, "Coords": "49.04404000,3.40030000", "lat": 49.04404, "FullName": "Ch\u00e2teau-Thierry, Aisne, France", "_id": "Ch\u00e2teau-Thierry, Aisne, France [0001]", "Region": "Aisne"}, "Dusseldorf, North Rhine-Westphalia, Germany [0001]": {"City": "Dusseldorf", "PlaceName": "Dusseldorf", "Country": "Germany", "Region": "North Rhine-Westphalia", "FullName": "Dusseldorf, North Rhine-Westphalia, Germany", "_id": "Dusseldorf, North Rhine-Westphalia, Germany [0001]", "InLocationDB": true}, "near Berlin, state of Berlin, Germany [0001]": {"City": "near Berlin", "PlaceName": "near Berlin", "Country": "Germany", "Region": "state of Berlin", "FullName": "near Berlin, state of Berlin, Germany", "_id": "near Berlin, state of Berlin, Germany [0001]", "InLocationDB": true}, "London, Greater London, England [0001]": {"City": "\ufeffLondon", "PlaceName": "London", "Country": "England", "InLocationDB": "TRUE", "lon": "-0.12714", "Coords": "51.50633000,-0.12714000", "lat": "51.50633", "FullName": "London, Greater London, England", "Region": "Greater London", "id": "London, Greater London, England [0001]"}, "Toul, Meurthe-et-Moselle, France [0001]": {"City": "Toul", "PlaceName": "Toul", "Country": "France", "Region": "Meurthe-et-Moselle", "FullName": "Toul, Meurthe-et-Moselle, France", "_id": "Toul, Meurthe-et-Moselle, France [0001]", "InLocationDB": true}, "Lille, Nord, France [0001]": {"City": "\ufeffLille", "PlaceName": "Lille", "Country": "France", "InLocationDB": "TRUE", "lon": "3.06281", "Coords": "50.63718500,3.06281000", "lat": "50.637185", "FullName": "Lille, Nord, France", "Region": "Nord", "id": "Lille, Nord, France [0001]"}, "Paris, Ile-de-France, France [0001]": {"City": "\ufeffParis", "PlaceName": "Paris", "Country": "France", "InLocationDB": "TRUE", "lon": "2.35099", "Coords": "48.85667000,2.35099000", "lat": "48.85667", "FullName": "Paris, Ile-de-France, France", "Region": "Ile-de-France", "id": "Paris, Ile-de-France, France [0001]"}, "Marseille, Bouches-du-Rh\u00f4ne, France [0001]": {"City": "Marseille", "PlaceName": "Marseille", "Country": "France", "Region": "Bouches-du-Rh\u00f4ne", "FullName": "Marseille, Bouches-du-Rh\u00f4ne, France", "_id": "Marseille, Bouches-du-Rh\u00f4ne, France [0001]", "InLocationDB": true}, "Bourg-en-Bresse, Ain, France [0001]": {"City": "\ufeffBourg-en-Bresse", "PlaceName": "Bourg-en-Bresse", "Country": "France", "InLocationDB": "TRUE", "lon": "", "Coords": "46.20574,5.2258", "lat": "", "FullName": "Bourg-en-Bresse, Ain, France", "Region": "Ain", "id": "Bourg-en-Bresse, Ain, France [0001]"}, "Middelburg, Zeeland, Netherlands [0001]": {"City": "Middelburg", "PlaceName": "Middelburg", "Country": "Netherlands", "InLocationDB": true, "lon": 3.60962, "Coords": "51.49542000,3.60962000", "lat": 51.49542, "FullName": "Middelburg, Zeeland, Netherlands", "_id": "Middelburg, Zeeland, Netherlands [0001]", "Region": "Zeeland"}, "Spain or Portugal [0001]": {"City": "\ufeff", "PlaceName": "Spain or Portugal", "Country": "Spain or Portugal", "InLocationDB": "TRUE", "lon": "", "Coords": "40,-4", "lat": "", "FullName": "Spain or Portugal", "Region": "", "id": "Spain or Portugal [0001]"}, "Mirecour, Lorraine region, France [0001]": {"City": "Mirecour", "PlaceName": "Mirecour", "Country": "France", "Region": "Lorraine region", "FullName": "Mirecour, Lorraine region, France", "_id": "Mirecour, Lorraine region, France [0001]", "InLocationDB": true}, "Gumbley Hall, near Tarbr\u00f4, Leicestershire, England [0001]": {"City": "Gumbley Hall, near Tarbr\u00f4", "PlaceName": "Gumbley Hall, near Tarbr\u00f4", "Country": "England", "Region": "Leicestershire", "FullName": "Gumbley Hall, near Tarbr\u00f4, Leicestershire, England", "_id": "Gumbley Hall, near Tarbr\u00f4, Leicestershire, England [0001]", "InLocationDB": true}, "Rethel, Ardennes, France [0001]": {"City": "Rethel", "PlaceName": "Rethel", "Country": "France", "Region": "Ardennes", "FullName": "Rethel, Ardennes, France", "_id": "Rethel, Ardennes, France [0001]", "InLocationDB": true}, "Cambridge, Cambridgeshire, England [0001]": {"City": "\ufeffCambridge", "PlaceName": "Cambridge", "Country": "England", "InLocationDB": "TRUE", "lon": "", "Coords": "51.73333,-2.36667", "lat": "", "FullName": "Cambridge, Cambridgeshire, England", "Region": "Cambridgeshire", "id": "Cambridge, Cambridgeshire, England [0001]"}, "Chantilly, Oise, France [0001]": {"City": "\ufeffChantilly", "PlaceName": "Chantilly", "Country": "France", "InLocationDB": "TRUE", "lon": "", "Coords": "49.1916,2.4852", "lat": "", "FullName": "Chantilly, Oise, France", "Region": "Oise", "id": "Chantilly, Oise, France [0001]"}, "Madrid, province of Madrid, Spain [0001]": {"City": "Madrid", "PlaceName": "Madrid", "Country": "Spain", "InLocationDB": true, "lon": -3.70577, "Coords": "40.42030000,-3.70577000", "lat": 40.4203, "FullName": "Madrid, province of Madrid, Spain", "_id": "Madrid, province of Madrid, Spain [0001]", "Region": "province of Madrid"}, "Zweibr\u00fccken, Rhineland-Palatinate, Germany [0001]": {"City": "Zweibr\u00fccken", "PlaceName": "Zweibr\u00fccken", "Country": "Germany", "InLocationDB": true, "lon": 8.57064, "Coords": "49.38568000,8.57064000", "lat": 49.38568, "FullName": "Zweibr\u00fccken, Rhineland-Palatinate, Germany", "_id": "Zweibr\u00fccken, Rhineland-Palatinate, Germany [0001]", "Region": "Rhineland-Palatinate"}, "Bern, canton of Bern, Switzerland [0001]": {"City": "\ufeffBern", "PlaceName": "Bern", "Country": "Switzerland", "InLocationDB": "TRUE", "lon": "7.4333", "Coords": "46.95000000,7.43330000", "lat": "46.95", "FullName": "Bern, canton of Bern, Switzerland", "Region": "canton of Bern", "id": "Bern, canton of Bern, Switzerland [0001]"}, "Saluzzo, Piedmont, Italy [0001]": {"City": "Saluzzo", "PlaceName": "Saluzzo", "Country": "Italy", "Region": "Piedmont", "FullName": "Saluzzo, Piedmont, Italy", "_id": "Saluzzo, Piedmont, Italy [0001]", "InLocationDB": true}, "Verda, ? [0001]": {"City": "\ufeffVerda", "PlaceName": "Verda", "Country": "?", "InLocationDB": "TRUE", "lon": "", "Coords": "", "lat": "", "FullName": "Verda, ?", "Region": "", "id": "Verda, ? [0001]"}, "Le Bruel, Esclan\u00e8des, Loz\u00e8re, France [0001]": {"City": "Le Bruel, Esclan\u00e8des", "PlaceName": "Le Bruel, Esclan\u00e8des", "Country": "France", "Region": "Loz\u00e8re", "FullName": "Le Bruel, Esclan\u00e8des, Loz\u00e8re, France", "_id": "Le Bruel, Esclan\u00e8des, Loz\u00e8re, France [0001]", "InLocationDB": true}, "Vevey, canton of Vaud, Switzerland [0001]": {"City": "Vevey", "PlaceName": "Vevey", "Country": "Switzerland", "Region": "canton of Vaud", "FullName": "Vevey, canton of Vaud, Switzerland", "_id": "Vevey, canton of Vaud, Switzerland [0001]", "InLocationDB": true}, "Eguilles, near Aix-en-Provence, Bouches-du-Rh\u00f4ne, France [0001]": {"City": "Eguilles, near Aix-en-Provence", "PlaceName": "Eguilles, near Aix-en-Provence", "Country": "France", "Region": "Bouches-du-Rh\u00f4ne", "FullName": "Eguilles, near Aix-en-Provence, Bouches-du-Rh\u00f4ne, France", "_id": "Eguilles, near Aix-en-Provence, Bouches-du-Rh\u00f4ne, France [0001]", "InLocationDB": true}, "Ch\u00e2teau de Sceaux, Hauts-de-Seine, France [0001]": {"City": "Ch\u00e2teau de Sceaux", "PlaceName": "Ch\u00e2teau de Sceaux", "Country": "France", "Region": "Hauts-de-Seine", "FullName": "Ch\u00e2teau de Sceaux, Hauts-de-Seine, France", "_id": "Ch\u00e2teau de Sceaux, Hauts-de-Seine, France [0001]", "InLocationDB": true}, "St-Claude, Jura, France [0001]": {"City": "St-Claude", "PlaceName": "St-Claude", "Country": "France", "InLocationDB": true, "lon": 5.8645, "Coords": "46.39291000,5.86450000", "lat": 46.39291, "FullName": "St-Claude, Jura, France", "_id": "St-Claude, Jura, France [0001]", "Region": "Jura"}, "Wroc\u0142aw, Lower Silesia, Poland [0001]": {"City": "Wroc\u0142aw", "PlaceName": "Wroc\u0142aw", "Country": "Poland", "Region": "Lower Silesia", "FullName": "Wroc\u0142aw, Lower Silesia, Poland", "_id": "Wroc\u0142aw, Lower Silesia, Poland [0001]", "InLocationDB": true}, "Loisey, near Bar-le-Duc, Meuse, France [0001]": {"City": "\ufeffLoisey, near Bar-le-Duc", "PlaceName": "Loisey, near Bar-le-Duc", "Country": "France", "InLocationDB": "TRUE", "lon": "", "Coords": "48.76667,5.28333", "lat": "", "FullName": "Loisey, near Bar-le-Duc, Meuse, France", "Region": "Meuse", "id": "Loisey, near Bar-le-Duc, Meuse, France [0001]"}, "Tr\u00e9guier, C\u00f4tes-d'Armor, France [0001]": {"City": "Tr\u00e9guier", "PlaceName": "Tr\u00e9guier", "Country": "France", "Region": "C\u00f4tes-d'Armor", "FullName": "Tr\u00e9guier, C\u00f4tes-d'Armor, France", "_id": "Tr\u00e9guier, C\u00f4tes-d'Armor, France [0001]", "InLocationDB": true}, "La Rochelle, Charente-Maritime, France [0001]": {"City": "La Rochelle", "PlaceName": "La Rochelle", "Country": "France", "Region": "Charente-Maritime", "FullName": "La Rochelle, Charente-Maritime, France", "_id": "La Rochelle, Charente-Maritime, France [0001]", "InLocationDB": true}, "Boulogne-Billancourt, Paris, Ile-de-France, France [0001]": {"City": "\ufeffBoulogne-Billancourt, Paris", "PlaceName": "Boulogne-Billancourt, Paris", "Country": "France", "InLocationDB": "TRUE", "lon": "", "Coords": "48.833,2.25", "lat": "", "FullName": "Boulogne-Billancourt, Paris, Ile-de-France, France", "Region": "Ile-de-France", "id": "Boulogne-Billancourt, Paris, Ile-de-France, France [0001]"}, "ch\u00e2teau des Places, Daon, Mayenne, France [0001]": {"City": "ch\u00e2teau des Places, Daon", "PlaceName": "ch\u00e2teau des Places, Daon", "Country": "France", "Region": "Mayenne", "FullName": "ch\u00e2teau des Places, Daon, Mayenne, France", "_id": "ch\u00e2teau des Places, Daon, Mayenne, France [0001]", "InLocationDB": true}, "Bolkenhain, Silesia, Poland [0001]": {"City": "\ufeffBolkenhain", "PlaceName": "Bolkenhain", "Country": "Poland", "InLocationDB": "TRUE", "lon": "", "Coords": "50.92203,16.10111", "lat": "", "FullName": "Bolkenhain, Silesia, Poland", "Region": "Silesia", "id": "Bolkenhain, Silesia, Poland [0001]"}, "Dirac, Charente, France [0001]": {"City": "Dirac", "PlaceName": "Dirac", "Country": "France", "Region": "Charente", "FullName": "Dirac, Charente, France", "_id": "Dirac, Charente, France [0001]", "InLocationDB": true}, "Farnham, Surrey, England [0001]": {"City": "Farnham", "PlaceName": "Farnham", "Country": "England", "Region": "Surrey", "FullName": "Farnham, Surrey, England", "_id": "Farnham, Surrey, England [0001]", "InLocationDB": true}, "Moravsk\u00e1 T\u0159ebov\u00e1, Pardubice, Czech Republic [0001]": {"City": "Moravsk\u00e1 T\u0159ebov\u00e1", "PlaceName": "Moravsk\u00e1 T\u0159ebov\u00e1", "Country": "Czech Republic", "Region": "Pardubice", "FullName": "Moravsk\u00e1 T\u0159ebov\u00e1, Pardubice, Czech Republic", "_id": "Moravsk\u00e1 T\u0159ebov\u00e1, Pardubice, Czech Republic [0001]", "InLocationDB": true}, "Riquewihr, Haut-Rhin, France [0001]": {"City": "Riquewihr", "PlaceName": "Riquewihr", "Country": "France", "Region": "Haut-Rhin", "FullName": "Riquewihr, Haut-Rhin, France", "_id": "Riquewihr, Haut-Rhin, France [0001]", "InLocationDB": true}, "Gera, Thuringia, Germany [0001]": {"City": "\ufeffGera", "PlaceName": "Gera", "Country": "Germany", "InLocationDB": "TRUE", "lon": "", "Coords": "50.88029,12.08187", "lat": "", "FullName": "Gera, Thuringia, Germany", "Region": "Thuringia", "id": "Gera, Thuringia, Germany [0001]"}, "Wassy, Haute-Marne, France [0001]": {"City": "\ufeffWassy", "PlaceName": "Wassy", "Country": "France", "InLocationDB": "TRUE", "lon": "4.31742", "Coords": "52.08399000,4.31742000", "lat": "52.08399", "FullName": "Wassy, Haute-Marne, France", "Region": "Haute-Marne", "id": "Wassy, Haute-Marne, France [0001]"}, "S\u00e9cheron, canton of Geneva, Switzerland [0001]": {"City": "S\u00e9cheron", "PlaceName": "S\u00e9cheron", "Country": "Switzerland", "Region": "canton of Geneva", "FullName": "S\u00e9cheron, canton of Geneva, Switzerland", "_id": "S\u00e9cheron, canton of Geneva, Switzerland [0001]", "InLocationDB": true}, "Castres, Tarn, France [0001]": {"City": "\ufeffCastres", "PlaceName": "Castres", "Country": "France", "InLocationDB": "TRUE", "lon": "2.24204", "Coords": "43.60795000,2.24204000", "lat": "43.60795", "FullName": "Castres, Tarn, France", "Region": "Tarn", "id": "Castres, Tarn, France [0001]"}, "Twickenham, Greater London, England [0001]": {"City": "Twickenham", "PlaceName": "Twickenham", "Country": "England", "Region": "Greater London", "FullName": "Twickenham, Greater London, England", "_id": "Twickenham, Greater London, England [0001]", "InLocationDB": true}, "Sardapur, Madhya Bharat, India [0001]": {"City": "Sardapur", "PlaceName": "Sardapur", "Country": "India", "Region": "Madhya Bharat", "FullName": "Sardapur, Madhya Bharat, India", "_id": "Sardapur, Madhya Bharat, India [0001]", "InLocationDB": true}, "Venice, Veneto, Italy [0001]": {"City": "\ufeffVenice", "PlaceName": "Venice", "Country": "Italy", "InLocationDB": "TRUE", "lon": "12.33", "Coords": "45.43,12.33", "lat": "45.43", "FullName": "Venice, Veneto, Italy", "Region": "Veneto", "id": "Venice, Veneto, Italy [0001]"}, "Cambrai, Nord, France [0001]": {"City": "Cambrai", "PlaceName": "Cambrai", "Country": "France", "Region": "Nord", "FullName": "Cambrai, Nord, France", "_id": "Cambrai, Nord, France [0001]", "InLocationDB": true}, "Semur, France [0001]": {"City": "Semur", "PlaceName": "Semur", "Country": "France", "InLocationDB": true, "FullName": "Semur, France", "_id": "Semur, France [0001]"}, "Bex, canton of Vaud, Switzerland [0001]": {"City": "Bex", "PlaceName": "Bex", "Country": "Switzerland", "Region": "canton of Vaud", "FullName": "Bex, canton of Vaud, Switzerland", "_id": "Bex, canton of Vaud, Switzerland [0001]", "InLocationDB": true}, "Roanne, Loire, France [0001]": {"City": "Roanne", "PlaceName": "Roanne", "Country": "France", "Region": "Loire", "FullName": "Roanne, Loire, France", "_id": "Roanne, Loire, France [0001]", "InLocationDB": true}, "Scotland [0001]": {"PlaceName": "Scotland", "Country": "Scotland", "InLocationDB": true, "lon": -3.165689, "Coords": "55.93632000,-3.16568900", "lat": 55.93632, "FullName": "Scotland", "_id": "Scotland [0001]"}, "near Mannheim, Baden-W\u00fcrttemberg, Germany [0001]": {"City": "near Mannheim", "PlaceName": "near Mannheim", "Country": "Germany", "Region": "Baden-W\u00fcrttemberg", "FullName": "near Mannheim, Baden-W\u00fcrttemberg, Germany", "_id": "near Mannheim, Baden-W\u00fcrttemberg, Germany [0001]", "InLocationDB": true}, "Vincennes, Val-de-Marne, France [0001]": {"City": "Vincennes", "PlaceName": "Vincennes", "Country": "France", "Region": "Val-de-Marne", "FullName": "Vincennes, Val-de-Marne, France", "_id": "Vincennes, Val-de-Marne, France [0001]", "InLocationDB": true}, "Erlangen, Bavaria, Germany [0001]": {"City": "\ufeffErlangen", "PlaceName": "Erlangen", "Country": "Germany", "InLocationDB": "TRUE", "lon": "", "Coords": "49.58972,11.00389", "lat": "", "FullName": "Erlangen, Bavaria, Germany", "Region": "Bavaria", "id": "Erlangen, Bavaria, Germany [0001]"}, "Vendeuvre-sur-Barse, Aube, France [0001]": {"City": "\ufeffVendeuvre-sur-Barse", "PlaceName": "Vendeuvre-sur-Barse", "Country": "France", "InLocationDB": "TRUE", "lon": "", "Coords": "48.23786,4.46905", "lat": "", "FullName": "Vendeuvre-sur-Barse, Aube, France", "Region": "Aube", "id": "Vendeuvre-sur-Barse, Aube, France [0001]"}, "Melun, Seine-et-Marne, France [0001]": {"City": "\ufeffMelun", "PlaceName": "Melun", "Country": "France", "InLocationDB": "TRUE", "lon": "", "Coords": "48.53333,2.66667", "lat": "", "FullName": "Melun, Seine-et-Marne, France", "Region": "Seine-et-Marne", "id": "Melun, Seine-et-Marne, France [0001]"}, "Utrecht, province of Utrecht, Netherlands [0001]": {"City": "\ufeffUtrecht", "PlaceName": "Utrecht", "Country": "Netherlands", "InLocationDB": "TRUE", "lon": "5.1333", "Coords": "52.08330000,5.13330000", "lat": "52.0833", "FullName": "Utrecht, province of Utrecht, Netherlands", "Region": "province of Utrecht", "id": "Utrecht, province of Utrecht, Netherlands [0001]"}, "Copenhagen, Hovedstaden, Denmark [0001]": {"City": "Copenhagen", "PlaceName": "Copenhagen", "Country": "Denmark", "InLocationDB": true, "lon": 12.56935, "Coords": "55.67631100,12.56935000", "lat": 55.676311, "FullName": "Copenhagen, Hovedstaden, Denmark", "_id": "Copenhagen, Hovedstaden, Denmark [0001]", "Region": "Hovedstaden"}, "Cleve/Kleve, North Rhine-Westphalia, Germany [0001]": {"City": "\ufeffCleve/Kleve", "PlaceName": "Cleve/Kleve", "Country": "Germany", "InLocationDB": "TRUE", "lon": "", "Coords": "51.78333,6.15", "lat": "", "FullName": "Cleve/Kleve, North Rhine-Westphalia, Germany", "Region": "North Rhine-Westphalia", "id": "Cleve/Kleve, North Rhine-Westphalia, Germany [0001]"}, "Pau, Pyr\u00e9n\u00e9es-Atlantiques, France [0001]": {"City": "Pau", "PlaceName": "Pau", "Country": "France", "Region": "Pyr\u00e9n\u00e9es-Atlantiques", "FullName": "Pau, Pyr\u00e9n\u00e9es-Atlantiques, France", "_id": "Pau, Pyr\u00e9n\u00e9es-Atlantiques, France [0001]", "InLocationDB": true}, "Givet, Ardennes, France [0001]": {"City": "Givet", "PlaceName": "Givet", "Country": "France", "Region": "Ardennes", "FullName": "Givet, Ardennes, France", "_id": "Givet, Ardennes, France [0001]", "InLocationDB": true}, "Orl\u00e9ans, Loiret, France [0001]": {"City": "Orl\u00e9ans", "PlaceName": "Orl\u00e9ans", "Country": "France", "Region": "Loiret", "FullName": "Orl\u00e9ans, Loiret, France", "_id": "Orl\u00e9ans, Loiret, France [0001]", "InLocationDB": true}, "Chebres, canton of Vaud, Switzerland [0001]": {"City": "Chebres", "PlaceName": "Chebres", "Country": "Switzerland", "Region": "canton of Vaud", "FullName": "Chebres, canton of Vaud, Switzerland", "_id": "Chebres, canton of Vaud, Switzerland [0001]", "InLocationDB": true}, "Malesherbes, Loiret, France [0001]": {"City": "Malesherbes", "PlaceName": "Malesherbes", "Country": "France", "Region": "Loiret", "FullName": "Malesherbes, Loiret, France", "_id": "Malesherbes, Loiret, France [0001]", "InLocationDB": true}, "Dijon, C\u00f4te-d'Or, France [0001]": {"City": "Dijon", "PlaceName": "Dijon", "Country": "France", "InLocationDB": true, "lon": 5.0442, "Coords": "47.32646000,5.04420000", "lat": 47.32646, "FullName": "Dijon, C\u00f4te-d'Or, France", "_id": "Dijon, C\u00f4te-d'Or, France [0001]", "Region": "C\u00f4te-d'Or"}, "Weissembourg, Bas-Rhin, France [0001]": {"City": "Weissembourg", "PlaceName": "Weissembourg", "Country": "France", "Region": "Bas-Rhin", "FullName": "Weissembourg, Bas-Rhin, France", "_id": "Weissembourg, Bas-Rhin, France [0001]", "InLocationDB": true}, "Sully-sur-Loire, Loiret, France [0001]": {"City": "Sully-sur-Loire", "PlaceName": "Sully-sur-Loire", "Country": "France", "Region": "Loiret", "FullName": "Sully-sur-Loire, Loiret, France", "_id": "Sully-sur-Loire, Loiret, France [0001]", "InLocationDB": true}, "Rotterdam, South Holland, Netherlands [0001]": {"City": "\ufeffRotterdam", "PlaceName": "Rotterdam", "Country": "Netherlands", "InLocationDB": "TRUE", "lon": "4.478455", "Coords": "51.92283500,4.47845500", "lat": "51.922835", "FullName": "Rotterdam, South Holland, Netherlands", "Region": "South Holland", "id": "Rotterdam, South Holland, Netherlands [0001]"}, "Abbeville, Somme, France [0001]": {"City": "Abbeville", "PlaceName": "Abbeville", "Country": "France", "Region": "Somme", "FullName": "Abbeville, Somme, France", "_id": "Abbeville, Somme, France [0001]", "InLocationDB": true}, "Montmorency, Val-d'Oise, France [0001]": {"City": "\ufeffMontmorency", "PlaceName": "Montmorency", "Country": "France", "InLocationDB": "TRUE", "lon": "", "Coords": "48.98826,2.3434", "lat": "", "FullName": "Montmorency, Val-d'Oise, France", "Region": "Val-d'Oise", "id": "Montmorency, Val-d'Oise, France [0001]"}, "ch\u00e2teau de L\u2019Isle-Belle, Meulan, Yvelines, France [0001]": {"City": "ch\u00e2teau de L\u2019Isle-Belle, Meulan", "PlaceName": "ch\u00e2teau de L\u2019Isle-Belle, Meulan", "Country": "France", "Region": "Yvelines", "FullName": "ch\u00e2teau de L\u2019Isle-Belle, Meulan, Yvelines, France", "_id": "ch\u00e2teau de L\u2019Isle-Belle, Meulan, Yvelines, France [0001]", "InLocationDB": true}, "Charleston, South Carolina, United States of America [0001]": {"City": "Charleston", "PlaceName": "Charleston", "Country": "United States of America", "InLocationDB": true, "lon": -79.9167, "Coords": "32.76670000,-79.91670000", "lat": 32.7667, "FullName": "Charleston, South Carolina, United States of America", "_id": "Charleston, South Carolina, United States of America [0001]", "Region": "South Carolina"}, "La Ciotat, Bouches-du-Rh\u00f4ne, France [0001]": {"City": "La Ciotat", "PlaceName": "La Ciotat", "Country": "France", "Region": "Bouches-du-Rh\u00f4ne", "FullName": "La Ciotat, Bouches-du-Rh\u00f4ne, France", "_id": "La Ciotat, Bouches-du-Rh\u00f4ne, France [0001]", "InLocationDB": true}, "Friedrichsberg, Berlin, state of Berlin, Germany [0001]": {"City": "Friedrichsberg, Berlin", "PlaceName": "Friedrichsberg, Berlin", "Country": "Germany", "Region": "state of Berlin", "FullName": "Friedrichsberg, Berlin, state of Berlin, Germany", "_id": "Friedrichsberg, Berlin, state of Berlin, Germany [0001]", "InLocationDB": true}, "Marly-le-Roi, Yvelines, France [0001]": {"City": "Marly-le-Roi", "PlaceName": "Marly-le-Roi", "Country": "France", "Region": "Yvelines", "FullName": "Marly-le-Roi, Yvelines, France", "_id": "Marly-le-Roi, Yvelines, France [0001]", "InLocationDB": true}, "Padua, Veneto, Italy [0001]": {"City": "\ufeffPadua", "PlaceName": "Padua", "Country": "Italy", "InLocationDB": "TRUE", "lon": "11.8833", "Coords": "45.41670000,11.88330000", "lat": "45.4167", "FullName": "Padua, Veneto, Italy", "Region": "Veneto", "id": "Padua, Veneto, Italy [0001]"}, "Hamburg, state of Hamburg, Germany [0001]": {"City": "\ufeffHamburg", "PlaceName": "Hamburg", "Country": "Germany", "InLocationDB": "TRUE", "lon": "", "Coords": "53.55,10", "lat": "", "FullName": "Hamburg, state of Hamburg, Germany", "Region": "state of Hamburg", "id": "Hamburg, state of Hamburg, Germany [0001]"}, "Bourges, Cher, France [0001]": {"City": "Bourges", "PlaceName": "Bourges", "Country": "France", "Region": "Cher", "FullName": "Bourges, Cher, France", "_id": "Bourges, Cher, France [0001]", "InLocationDB": true}, "Montrichard, Loir-et-Cher, France [0001]": {"City": "Montrichard", "PlaceName": "Montrichard", "Country": "France", "InLocationDB": true, "lon": 1.18729, "Coords": "47.34279000,1.18729000", "lat": 47.34279, "FullName": "Montrichard, Loir-et-Cher, France", "_id": "Montrichard, Loir-et-Cher, France [0001]", "Region": "Loir-et-Cher"}, "Schwetzingen, Baden-W\u00fcrttemberg, Germany [0001]": {"City": "Schwetzingen", "PlaceName": "Schwetzingen", "Country": "Germany", "InLocationDB": true, "lon": 8.57064, "Coords": "49.38568000,8.57064000", "lat": 49.38568, "FullName": "Schwetzingen, Baden-W\u00fcrttemberg, Germany", "_id": "Schwetzingen, Baden-W\u00fcrttemberg, Germany [0001]", "Region": "Baden-W\u00fcrttemberg"}, "Sanssouci, Potsdam, Brandenburg, Germany [0001]": {"City": "Sanssouci Palace, Potsdam", "PlaceName": "Sanssouci, Potsdam", "Country": "Germany", "InLocationDB": "TRUE", "lon": "", "Coords": "52.403333,\u00a013.038611", "lat": "", "FullName": "Sanssouci, Potsdam, Brandenburg, Germany", "Region": "Brandenburg", "id": "Sanssouci, Potsdam, Brandenburg, Germany [0001]"}, "Castelnau-Magnoac, Hautes-Pyr\u00e9n\u00e9es, France [0001]": {"City": "Castelnau-Magnoac", "PlaceName": "Castelnau-Magnoac", "Country": "France", "Region": "Hautes-Pyr\u00e9n\u00e9es", "FullName": "Castelnau-Magnoac, Hautes-Pyr\u00e9n\u00e9es, France", "_id": "Castelnau-Magnoac, Hautes-Pyr\u00e9n\u00e9es, France [0001]", "InLocationDB": true}, "England [0001]": {"City": "\ufeff", "PlaceName": "England", "Country": "England", "InLocationDB": "TRUE", "lon": "-1.40308", "Coords": "51.18986000,-1.40308000", "lat": "51.18986", "FullName": "England", "Region": "", "id": "England [0001]"}, "Bergues-St Winox, Nord, France [0001]": {"City": "Bergues-St Winox", "PlaceName": "Bergues-St Winox", "Country": "France", "InLocationDB": true, "lon": 2.43256, "Coords": "50.96890000,2.43256000", "lat": 50.9689, "FullName": "Bergues-St Winox, Nord, France", "_id": "Bergues-St Winox, Nord, France [0001]", "Region": "Nord"}, "Warsaw, Masovia, Poland [0001]": {"City": "\ufeffWarsaw", "PlaceName": "Warsaw", "Country": "Poland", "InLocationDB": "TRUE", "lon": "21.00936", "Coords": "52.23535000,21.00936000", "lat": "52.23535", "FullName": "Warsaw, Masovia, Poland", "Region": "Masovia", "id": "Warsaw, Masovia, Poland [0001]"}, "Perpignan, Pyr\u00e9n\u00e9es-Orientales, France [0001]": {"City": "Perpignan", "PlaceName": "Perpignan", "Country": "France", "InLocationDB": true, "lon": 2.9, "Coords": "42.70000000,2.90000000", "lat": 42.7, "FullName": "Perpignan, Pyr\u00e9n\u00e9es-Orientales, France", "_id": "Perpignan, Pyr\u00e9n\u00e9es-Orientales, France [0001]", "Region": "Pyr\u00e9n\u00e9es-Orientales"}, "Aire, canton of Geneva, Switzerland [0001]": {"City": "\ufeffAire", "PlaceName": "Aire", "Country": "Switzerland", "InLocationDB": "TRUE", "lon": "", "Coords": "46.19057,6.04287", "lat": "", "FullName": "Aire, canton of Geneva, Switzerland", "Region": "canton of Geneva", "id": "Aire, canton of Geneva, Switzerland [0001]"}, "Prigny, Alsace region, France [0001]": {"City": "\ufeffPrigny", "PlaceName": "Prigny", "Country": "France", "InLocationDB": "TRUE", "lon": "", "Coords": "47.06673,-1.9808", "lat": "", "FullName": "Prigny, Alsace region, France", "Region": "Alsace region", "id": "Prigny, Alsace region, France [0001]"}, "Toulouse, Haute-Garonne, France [0001]": {"City": "\ufeffToulouse", "PlaceName": "Toulouse", "Country": "France", "InLocationDB": "TRUE", "lon": "1.44869", "Coords": "43.60574000,1.44869000", "lat": "43.60574", "FullName": "Toulouse, Haute-Garonne, France", "Region": "Haute-Garonne", "id": "Toulouse, Haute-Garonne, France [0001]"}, "Amsterdam, North Holland, Netherlands [0001]": {"City": "\ufeffAmsterdam", "PlaceName": "Amsterdam", "Country": "Netherlands", "InLocationDB": "TRUE", "lon": "4.8932", "Coords": "52.37312000,4.89320000", "lat": "52.37312", "FullName": "Amsterdam, North Holland, Netherlands", "Region": "North Holland", "id": "Amsterdam, North Holland, Netherlands [0001]"}, "Coppet, canton of Vaud, Switzerland [0001]": {"City": "Coppet", "PlaceName": "Coppet", "Country": "Switzerland", "Region": "canton of Vaud", "FullName": "Coppet, canton of Vaud, Switzerland", "_id": "Coppet, canton of Vaud, Switzerland [0001]", "InLocationDB": true}, "St-Marcel-de-Careiret, Gard, France [0001]": {"City": "St-Marcel-de-Careiret", "PlaceName": "St-Marcel-de-Careiret", "Country": "France", "Region": "Gard", "FullName": "St-Marcel-de-Careiret, Gard, France", "_id": "St-Marcel-de-Careiret, Gard, France [0001]", "InLocationDB": true}, "near Bar, France [0001]": {"City": "near Bar", "PlaceName": "near Bar", "Country": "France", "InLocationDB": true, "FullName": "near Bar, France", "_id": "near Bar, France [0001]"}, "\u017deletava/Scheletau, Vyso\u010dina, Czech Republic [0001]": {"City": "\u017deletava/Scheletau", "PlaceName": "\u017deletava/Scheletau", "Country": "Czech Republic", "Region": "Vyso\u010dina", "FullName": "\u017deletava/Scheletau, Vyso\u010dina, Czech Republic", "_id": "\u017deletava/Scheletau, Vyso\u010dina, Czech Republic [0001]", "InLocationDB": true}, "ch\u00e2teau du Plessis, near Senlis, Oise, France [0001]": {"City": "ch\u00e2teau du Plessis, near Senlis", "PlaceName": "ch\u00e2teau du Plessis, near Senlis", "Country": "France", "Region": "Oise", "FullName": "ch\u00e2teau du Plessis, near Senlis, Oise, France", "_id": "ch\u00e2teau du Plessis, near Senlis, Oise, France [0001]", "InLocationDB": true}, "Brest, Finist\u00e8re, France [0001]": {"City": "Brest", "PlaceName": "Brest", "Country": "France", "InLocationDB": true, "lon": -4.486228, "Coords": "48.39023800,-4.48622800", "lat": 48.390238, "FullName": "Brest, Finist\u00e8re, France", "_id": "Brest, Finist\u00e8re, France [0001]", "Region": "Finist\u00e8re"}, "Maisons-Alfort, Paris, Ile-de-France, France [0001]": {"City": "Maisons-Alfort, Paris", "PlaceName": "Maisons-Alfort, Paris", "Country": "France", "Region": "Ile-de-France", "FullName": "Maisons-Alfort, Paris, Ile-de-France, France", "_id": "Maisons-Alfort, Paris, Ile-de-France, France [0001]", "InLocationDB": true}, "Zeeland, Netherlands [0001]": {"City": "\ufeff", "PlaceName": "Zeeland", "Country": "Netherlands", "InLocationDB": "TRUE", "lon": "", "Coords": "51.41667,3.75", "lat": "", "FullName": "Zeeland, Netherlands", "Region": "Zeeland", "id": "Zeeland, Netherlands [0001]"}, "Ludwigsburg, Baden-W\u00fcrttemberg, Germany [0001]": {"City": "Ludwigsburg", "PlaceName": "Ludwigsburg", "Country": "Germany", "Region": "Baden-W\u00fcrttemberg", "FullName": "Ludwigsburg, Baden-W\u00fcrttemberg, Germany", "_id": "Ludwigsburg, Baden-W\u00fcrttemberg, Germany [0001]", "InLocationDB": true}, "Anet, Eure-et-Loir, France [0001]": {"City": "\ufeffAnet", "PlaceName": "Anet", "Country": "France", "InLocationDB": "TRUE", "lon": "", "Coords": "48.85642,1.43981", "lat": "", "FullName": "Anet, Eure-et-Loir, France", "Region": "Eure-et-Loir", "id": "Anet, Eure-et-Loir, France [0001]"}, "Versoix, canton of Geneva, Switzerland [0001]": {"City": "Versoix", "PlaceName": "Versoix", "Country": "Switzerland", "Region": "canton of Geneva", "FullName": "Versoix, canton of Geneva, Switzerland", "_id": "Versoix, canton of Geneva, Switzerland [0001]", "InLocationDB": true}, "Choisy-le-Roi, Val-de-Marne, France [0001]": {"City": "Choisy-le-Roi", "PlaceName": "Choisy-le-Roi", "Country": "France", "Region": "Val-de-Marne", "FullName": "Choisy-le-Roi, Val-de-Marne, France", "_id": "Choisy-le-Roi, Val-de-Marne, France [0001]", "InLocationDB": true}, "Traversine, canton of Neuch\u00e2tel, Switzerland [0001]": {"City": "Traversine", "PlaceName": "Traversine", "Country": "Switzerland", "Region": "canton of Neuch\u00e2tel", "FullName": "Traversine, canton of Neuch\u00e2tel, Switzerland", "_id": "Traversine, canton of Neuch\u00e2tel, Switzerland [0001]", "InLocationDB": true}, "Cirey-sur-Blaise, Haute-Marne, France [0001]": {"City": "\ufeffCirey-sur-Blaise", "PlaceName": "Cirey-sur-Blaise", "Country": "France", "InLocationDB": "TRUE", "lon": "4.94219", "Coords": "48.33174000,4.94219000", "lat": "48.33174", "FullName": "Cirey-sur-Blaise, Haute-Marne, France", "Region": "Haute-Marne", "id": "Cirey-sur-Blaise, Haute-Marne, France [0001]"}, "Montb\u00e9liard, Doubs, France [0001]": {"City": "Montb\u00e9liard", "PlaceName": "Montb\u00e9liard", "Country": "France", "InLocationDB": true, "lon": 6.80297, "Coords": "47.50862000,6.80297000", "lat": 47.50862, "FullName": "Montb\u00e9liard, Doubs, France", "_id": "Montb\u00e9liard, Doubs, France [0001]", "Region": "Doubs"}, "Naples, Campania, Italy [0001]": {"City": "Naples", "PlaceName": "Naples", "Country": "Italy", "InLocationDB": true, "lon": 14.25185, "Coords": "40.83990000,14.25185000", "lat": 40.8399, "FullName": "Naples, Campania, Italy", "_id": "Naples, Campania, Italy [0001]", "Region": "Campania"}, "Verona, Veneto, Italy [0001]": {"City": "\ufeffVerona", "PlaceName": "Verona", "Country": "Italy", "InLocationDB": "TRUE", "lon": "11", "Coords": "45.43330000,11.00000000", "lat": "45.4333", "FullName": "Verona, Veneto, Italy", "Region": "Veneto", "id": "Verona, Veneto, Italy [0001]"}, "Grodk\u00f3w/Grottkau, Opole, Poland [0001]": {"City": "Grodk\u00f3w/Grottkau", "PlaceName": "Grodk\u00f3w/Grottkau", "Country": "Poland", "Region": "Opole", "FullName": "Grodk\u00f3w/Grottkau, Opole, Poland", "_id": "Grodk\u00f3w/Grottkau, Opole, Poland [0001]", "InLocationDB": true}, "Leyrat, Creuse, France [0001]": {"City": "Leyrat", "PlaceName": "Leyrat", "Country": "France", "Region": "Creuse", "FullName": "Leyrat, Creuse, France", "_id": "Leyrat, Creuse, France [0001]", "InLocationDB": true}, "Chaumareys-la-Vidalie, near Brive, Limousin, France [0001]": {"City": "Chaumareys-la-Vidalie, near Brive", "PlaceName": "Chaumareys-la-Vidalie, near Brive", "Country": "France", "Region": "Limousin", "FullName": "Chaumareys-la-Vidalie, near Brive, Limousin, France", "_id": "Chaumareys-la-Vidalie, near Brive, Limousin, France [0001]", "InLocationDB": true}, "Modena, Emilia-Romagna, Italy [0001]": {"City": "Modena", "PlaceName": "Modena", "Country": "Italy", "InLocationDB": true, "lon": 10.93406, "Coords": "44.64308000,10.93406000", "lat": 44.64308, "FullName": "Modena, Emilia-Romagna, Italy", "_id": "Modena, Emilia-Romagna, Italy [0001]", "Region": "Emilia-Romagna"}, "ch\u00e2teau de Villiers, Haute-Marne, France [0001]": {"City": "ch\u00e2teau de Villiers", "PlaceName": "ch\u00e2teau de Villiers", "Country": "France", "Region": "Haute-Marne", "FullName": "ch\u00e2teau de Villiers, Haute-Marne, France", "_id": "ch\u00e2teau de Villiers, Haute-Marne, France [0001]", "InLocationDB": true}, "Jever, East Frisia, Germany [0001]": {"City": "\ufeffJever", "PlaceName": "Jever", "Country": "Germany", "InLocationDB": "TRUE", "lon": "", "Coords": "53.58333,7.9", "lat": "", "FullName": "Jever, East Frisia, Germany", "Region": "East Frisia", "id": "Jever, East Frisia, Germany [0001]"}, "near Rotterdam, South Holland, Netherlands [0001]": {"City": "\ufeffnear Rotterdam", "PlaceName": "near Rotterdam", "Country": "Netherlands", "InLocationDB": "TRUE", "lon": "", "Coords": "51.9225,4.47917", "lat": "", "FullName": "near Rotterdam, South Holland, Netherlands", "Region": "South Holland", "id": "near Rotterdam, South Holland, Netherlands [0001]"}, "Mont\u00e9limar, Dr\u00f4me, France [0001]": {"City": "Mont\u00e9limar", "PlaceName": "Mont\u00e9limar", "Country": "France", "InLocationDB": true, "lon": 4.74916, "Coords": "44.55559000,4.74916000", "lat": 44.55559, "FullName": "Mont\u00e9limar, Dr\u00f4me, France", "_id": "Mont\u00e9limar, Dr\u00f4me, France [0001]", "Region": "Dr\u00f4me"}, "null": {}, "Bath, Somerset, England [0001]": {"City": "Bath", "PlaceName": "Bath", "Country": "England", "InLocationDB": true, "lon": -2.361324, "Coords": "51.38503000,-2.36132400", "lat": 51.38503, "FullName": "Bath, Somerset, England", "_id": "Bath, Somerset, England [0001]", "Region": "Somerset"}, "Morillon, Haute Savoie, France [0001]": {"City": "Morillon", "PlaceName": "Morillon", "Country": "France", "Region": "Haute Savoie", "FullName": "Morillon, Haute Savoie, France", "_id": "Morillon, Haute Savoie, France [0001]", "InLocationDB": true}, "Philippsbourg, Moselle, France [0001]": {"City": "\ufeffPhilippsbourg", "PlaceName": "Philippsbourg", "Country": "France", "InLocationDB": "TRUE", "lon": "", "Coords": "48.98327,7.56847", "lat": "", "FullName": "Philippsbourg, Moselle, France", "Region": "Moselle", "id": "Philippsbourg, Moselle, France [0001]"}, "Ruremonde, Limbourg, Netherlands [0001]": {"City": "Ruremonde", "PlaceName": "Ruremonde", "Country": "Netherlands", "Region": "Limbourg", "FullName": "Ruremonde, Limbourg, Netherlands", "_id": "Ruremonde, Limbourg, Netherlands [0001]", "InLocationDB": true}, "Renens, near Lausanne, canton of Vaud, Switzerland [0001]": {"City": "Renens, near Lausanne", "PlaceName": "Renens, near Lausanne", "Country": "Switzerland", "Region": "canton of Vaud", "FullName": "Renens, near Lausanne, canton of Vaud, Switzerland", "_id": "Renens, near Lausanne, canton of Vaud, Switzerland [0001]", "InLocationDB": true}, "Voiron, Is\u00e8re, France [0001]": {"City": "Voiron", "PlaceName": "Voiron", "Country": "France", "Region": "Is\u00e8re", "FullName": "Voiron, Is\u00e8re, France", "_id": "Voiron, Is\u00e8re, France [0001]", "InLocationDB": true}, "Ch\u00e2lon-sur-Sa\u00f4ne, Sa\u00f4ne-et-Loire, France [0001]": {"City": "Ch\u00e2lon-sur-Sa\u00f4ne", "PlaceName": "Ch\u00e2lon-sur-Sa\u00f4ne", "Country": "France", "Region": "Sa\u00f4ne-et-Loire", "FullName": "Ch\u00e2lon-sur-Sa\u00f4ne, Sa\u00f4ne-et-Loire, France", "_id": "Ch\u00e2lon-sur-Sa\u00f4ne, Sa\u00f4ne-et-Loire, France [0001]", "InLocationDB": true}, "\u00c9pernay, Marne, France [0001]": {"City": "\u00c9pernay", "PlaceName": "\u00c9pernay", "Country": "France", "Region": "Marne", "FullName": "\u00c9pernay, Marne, France", "_id": "\u00c9pernay, Marne, France [0001]", "InLocationDB": true}, "Versonnex, Ain, France [0001]": {"City": "Versonnex", "PlaceName": "Versonnex", "Country": "France", "Region": "Ain", "FullName": "Versonnex, Ain, France", "_id": "Versonnex, Ain, France [0001]", "InLocationDB": true}, "Chemnitz, Saxony, Germany [0001]": {"City": "Chemnitz", "PlaceName": "Chemnitz", "Country": "Germany", "Region": "Saxony", "FullName": "Chemnitz, Saxony, Germany", "_id": "Chemnitz, Saxony, Germany [0001]", "InLocationDB": true}, "Herford, Hertfordshire, England [0001]": {"City": "\ufeffHerford", "PlaceName": "Herford", "Country": "Germany", "InLocationDB": "TRUE", "lon": "", "Coords": "52.10914095444199,8.682718276977539", "lat": "", "FullName": "Herford, (fixed! Voltaire was not in England but on his way to Brandenberg to see Frederick)", "Region": "Hertfordshire", "id": "Herford, Hertfordshire, England [0001]"}, "Ch\u00e2tillon-sur-Seine, C\u00f4te-d'Or, France [0001]": {"City": "Ch\u00e2tillon-sur-Seine", "PlaceName": "Ch\u00e2tillon-sur-Seine", "Country": "France", "Region": "C\u00f4te-d'Or", "FullName": "Ch\u00e2tillon-sur-Seine, C\u00f4te-d'Or, France", "_id": "Ch\u00e2tillon-sur-Seine, C\u00f4te-d'Or, France [0001]", "InLocationDB": true}, "Berlin, state of Berlin, Germany [0001]": {"City": "\ufeffBerlin", "PlaceName": "Berlin", "Country": "Germany", "InLocationDB": "TRUE", "lon": "13.37699", "Coords": "52.51607000,13.37699000", "lat": "52.51607", "FullName": "Berlin, state of Berlin, Germany", "Region": "state of Berlin", "id": "Berlin, state of Berlin, Germany [0001]"}, "La Muette, Paris, Ile-de-France, France [0001]": {"City": "La Muette, Paris", "PlaceName": "La Muette, Paris", "Country": "France", "Region": "Ile-de-France", "FullName": "La Muette, Paris, Ile-de-France, France", "_id": "La Muette, Paris, Ile-de-France, France [0001]", "InLocationDB": true}, "Loo, Holland, Netherlands [0001]": {"City": "\ufeffLoo", "PlaceName": "Loo", "Country": "Netherlands", "InLocationDB": "TRUE", "lon": "", "Coords": "51.92917,5.99028", "lat": "", "FullName": "Loo, Holland, Netherlands", "Region": "Holland", "id": "Loo, Holland, Netherlands [0001]"}, "Mervent, Vend\u00e9e, France [0001]": {"City": "Mervent", "PlaceName": "Mervent", "Country": "France", "Region": "Vend\u00e9e", "FullName": "Mervent, Vend\u00e9e, France", "_id": "Mervent, Vend\u00e9e, France [0001]", "InLocationDB": true}, "Forges-les-Eaux, Seine-Maritime, France [0001]": {"City": "\ufeffForges-les-Eaux", "PlaceName": "Forges-les-Eaux", "Country": "France", "InLocationDB": "TRUE", "lon": "", "Coords": "49.61391,1.54449", "lat": "", "FullName": "Forges-les-Eaux, Seine-Maritime, France", "Region": "Seine-Maritime", "id": "Forges-les-Eaux, Seine-Maritime, France [0001]"}, "Parma, Emilia-Romagna, Italy [0001]": {"City": "Parma", "PlaceName": "Parma", "Country": "Italy", "InLocationDB": true, "lon": 10.339925, "Coords": "44.79864000,10.33992500", "lat": 44.79864, "FullName": "Parma, Emilia-Romagna, Italy", "_id": "Parma, Emilia-Romagna, Italy [0001]", "Region": "Emilia-Romagna"}, "Orgelet, Franche Comt\u00e9, France [0001]": {"City": "Orgelet", "PlaceName": "Orgelet", "Country": "France", "Region": "Franche Comt\u00e9", "FullName": "Orgelet, Franche Comt\u00e9, France", "_id": "Orgelet, Franche Comt\u00e9, France [0001]", "InLocationDB": true}, "Neuville, near Houdan, Yvelines, France [0001]": {"City": "Neuville, near Houdan", "PlaceName": "Neuville, near Houdan", "Country": "France", "Region": "Yvelines", "FullName": "Neuville, near Houdan, Yvelines, France", "_id": "Neuville, near Houdan, Yvelines, France [0001]", "InLocationDB": true}, "Senones, Vosges, France [0001]": {"City": "\ufeffSenones", "PlaceName": "Senones", "Country": "France", "InLocationDB": "TRUE", "lon": "", "Coords": "48.39475,6.97818", "lat": "", "FullName": "Senones, Vosges, France", "Region": "Vosges", "id": "Senones, Vosges, France [0001]"}, "Commercy, Meuse, France [0001]": {"City": "\ufeffCommercy", "PlaceName": "Commercy", "Country": "France", "InLocationDB": "TRUE", "lon": "", "Coords": "48.76128,5.59067", "lat": "", "FullName": "Commercy, Meuse, France", "Region": "Meuse", "id": "Commercy, Meuse, France [0001]"}, "Crassier, canton of Vaud, Switzerland [0001]": {"City": "Crassier", "PlaceName": "Crassier", "Country": "Switzerland", "Region": "canton of Vaud", "FullName": "Crassier, canton of Vaud, Switzerland", "_id": "Crassier, canton of Vaud, Switzerland [0001]", "InLocationDB": true}, "Radeburg, Saxony, Germany [0001]": {"City": "\ufeffRadeburg", "PlaceName": "Radeburg", "Country": "Germany", "InLocationDB": "TRUE", "lon": "", "Coords": "51.21516,13.7281", "lat": "", "FullName": "Radeburg, Saxony, Germany", "Region": "Saxony", "id": "Radeburg, Saxony, Germany [0001]"}, "ch\u00e2teau de Tournebu, near Gaillon, Normandie, France [0001]": {"City": "ch\u00e2teau de Tournebu, near Gaillon", "PlaceName": "ch\u00e2teau de Tournebu, near Gaillon", "Country": "France", "Region": "Normandie", "FullName": "ch\u00e2teau de Tournebu, near Gaillon, Normandie, France", "_id": "ch\u00e2teau de Tournebu, near Gaillon, Normandie, France [0001]", "InLocationDB": true}, "Charleville, Ardennes, France [0001]": {"City": "Charleville", "PlaceName": "Charleville", "Country": "France", "Region": "Ardennes", "FullName": "Charleville, Ardennes, France", "_id": "Charleville, Ardennes, France [0001]", "InLocationDB": true}, "Tugny-et-Pont, Aisne, France [0001]": {"City": "Tugny-et-Pont", "PlaceName": "Tugny-et-Pont", "Country": "France", "Region": "Aisne", "FullName": "Tugny-et-Pont, Aisne, France", "_id": "Tugny-et-Pont, Aisne, France [0001]", "InLocationDB": true}, "Montrouge, Paris, Ile-de-France, France [0001]": {"City": "Montrouge, Paris", "PlaceName": "Montrouge, Paris", "Country": "France", "Region": "Ile-de-France", "FullName": "Montrouge, Paris, Ile-de-France, France", "_id": "Montrouge, Paris, Ile-de-France, France [0001]", "InLocationDB": true}, "Pr\u00e9laz, near Lausanne, canton of Vaud, Switzerland [0001]": {"City": "Pr\u00e9laz, near Lausanne", "PlaceName": "Pr\u00e9laz, near Lausanne", "Country": "Switzerland", "Region": "canton of Vaud", "FullName": "Pr\u00e9laz, near Lausanne, canton of Vaud, Switzerland", "_id": "Pr\u00e9laz, near Lausanne, canton of Vaud, Switzerland [0001]", "InLocationDB": true}, "ch\u00e2teau de Sully, Sa\u00f4ne-et-Loire, France [0001]": {"City": "ch\u00e2teau de Sully", "PlaceName": "ch\u00e2teau de Sully", "Country": "France", "Region": "Sa\u00f4ne-et-Loire", "FullName": "ch\u00e2teau de Sully, Sa\u00f4ne-et-Loire, France", "_id": "ch\u00e2teau de Sully, Sa\u00f4ne-et-Loire, France [0001]", "InLocationDB": true}, "Albi, Tarn, France [0001]": {"City": "Albi", "PlaceName": "Albi", "Country": "France", "InLocationDB": true, "lon": 2.14838, "Coords": "43.92621000,2.14838000", "lat": 43.92621, "FullName": "Albi, Tarn, France", "_id": "Albi, Tarn, France [0001]", "Region": "Tarn"}, "Tongres, province of Limbourg, Belgium [0001]": {"City": "Tongres", "PlaceName": "Tongres", "Country": "Belgium", "InLocationDB": true, "lon": 5.46362, "Coords": "50.78072000,5.46362000", "lat": 50.78072, "FullName": "Tongres, province of Limbourg, Belgium", "_id": "Tongres, province of Limbourg, Belgium [0001]", "Region": "province of Limbourg"}, "N\u00eemes, Gard, France [0001]": {"City": "N\u00eemes", "PlaceName": "N\u00eemes", "Country": "France", "Region": "Gard", "FullName": "N\u00eemes, Gard, France", "_id": "N\u00eemes, Gard, France [0001]", "InLocationDB": true}, "Rolle, canton of Vaud, Switzerland [0001]": {"City": "\ufeffRolle", "PlaceName": "Rolle", "Country": "Switzerland", "InLocationDB": "TRUE", "lon": "", "Coords": "46.458,6.335", "lat": "", "FullName": "Rolle, canton of Vaud, Switzerland", "Region": "canton of Vaud", "id": "Rolle, canton of Vaud, Switzerland [0001]"}, "Angoul\u00eame, Charente, France [0001]": {"City": "Angoul\u00eame", "PlaceName": "Angoul\u00eame", "Country": "France", "InLocationDB": true, "lon": 0.15699, "Coords": "45.64924000,0.15699000", "lat": 45.64924, "FullName": "Angoul\u00eame, Charente, France", "_id": "Angoul\u00eame, Charente, France [0001]", "Region": "Charente"}, "Ferney, Ain, France [0001]": {"City": "\ufeffFerney", "PlaceName": "Ferney", "Country": "France", "InLocationDB": "TRUE", "lon": "6.108056", "Coords": "46.255833,6.108056", "lat": "46.255833", "FullName": "Ferney, Ain, France", "Region": "Ain", "id": "Ferney, Ain, France [0001]"}, "Fridrichswerth, near Gotha, Thuringia, Germany [0001]": {"City": "\ufeffFridrichswerth, near Gotha", "PlaceName": "Fridrichswerth, near Gotha", "Country": "Germany", "InLocationDB": "TRUE", "lon": "", "Coords": "50.94823,10.70193", "lat": "", "FullName": "Fridrichswerth, near Gotha, Thuringia, Germany", "Region": "Thuringia", "id": "Fridrichswerth, near Gotha, Thuringia, Germany [0001]"}, "Launay, Seine-Maritime, France [0001]": {"City": "\ufeffLaunay", "PlaceName": "Launay", "Country": "France", "InLocationDB": "TRUE", "lon": "", "Coords": "49.52986,1.49629", "lat": "", "FullName": "Launay, Seine-Maritime, France", "Region": "Seine-Maritime", "id": "Launay, Seine-Maritime, France [0001]"}, "Drottningholm, Stockholm County, Sweden [0001]": {"City": "\ufeffDrottningholm", "PlaceName": "Drottningholm", "Country": "Sweden", "InLocationDB": "TRUE", "lon": "", "Coords": "59.32513,17.8878", "lat": "", "FullName": "Drottningholm, Stockholm County, Sweden", "Region": "Stockholm County", "id": "Drottningholm, Stockholm County, Sweden [0001]"}, "Montigny, France [0001]": {"City": "Montigny", "PlaceName": "Montigny", "Country": "France", "InLocationDB": true, "FullName": "Montigny, France", "_id": "Montigny, France [0001]"}, "Selibice, Central Bohemia, Czech Republic [0001]": {"City": "\ufeffSelibice", "PlaceName": "Selibice", "Country": "Czech Republic", "InLocationDB": "TRUE", "lon": "", "Coords": "50.34316,13.61292", "lat": "", "FullName": "Selibice, Central Bohemia, Czech Republic", "Region": "Central Bohemia", "id": "Selibice, Central Bohemia, Czech Republic [0001]"}, "Schwetzingen, near Mannheim, Baden-W\u00fcrttemberg, Germany [0001]": {"City": "Schwetzingen, near Mannheim", "PlaceName": "Schwetzingen, near Mannheim", "Country": "Germany", "Region": "Baden-W\u00fcrttemberg", "FullName": "Schwetzingen, near Mannheim, Baden-W\u00fcrttemberg, Germany", "_id": "Schwetzingen, near Mannheim, Baden-W\u00fcrttemberg, Germany [0001]", "InLocationDB": true}, "Les Places, near Chinon, Touraine, France [0001]": {"City": "Les Places, near Chinon", "PlaceName": "Les Places, near Chinon", "Country": "France", "Region": "Touraine", "FullName": "Les Places, near Chinon, Touraine, France", "_id": "Les Places, near Chinon, Touraine, France [0001]", "InLocationDB": true}, "ch\u00e2teau d'Aiguefonde, near Mazamet, Midi-Pyren\u00e9es, France [0001]": {"City": "ch\u00e2teau d'Aiguefonde, near Mazamet", "PlaceName": "ch\u00e2teau d'Aiguefonde, near Mazamet", "Country": "France", "Region": "Midi-Pyren\u00e9es", "FullName": "ch\u00e2teau d'Aiguefonde, near Mazamet, Midi-Pyren\u00e9es, France", "_id": "ch\u00e2teau d'Aiguefonde, near Mazamet, Midi-Pyren\u00e9es, France [0001]", "InLocationDB": true}, "Issy, Hauts-de-Seine, France [0001]": {"City": "Issy", "PlaceName": "Issy", "Country": "France", "Region": "Hauts-de-Seine", "FullName": "Issy, Hauts-de-Seine, France", "_id": "Issy, Hauts-de-Seine, France [0001]", "InLocationDB": true}, "Fanne, Friuli-Venezia Giulia, Italy [0001]": {"City": "Fanne", "PlaceName": "Fanne", "Country": "Italy", "InLocationDB": true, "lon": 10.9641, "Coords": "45.57950000,10.96410000", "lat": 45.5795, "FullName": "Fanne, Friuli-Venezia Giulia, Italy", "_id": "Fanne, Friuli-Venezia Giulia, Italy [0001]", "Region": "Friuli-Venezia Giulia"}, "Magdeburg, Saxony-Anhalt, Germany [0001]": {"City": "\ufeffMagdeburg", "PlaceName": "Magdeburg", "Country": "Germany", "InLocationDB": "TRUE", "lon": "", "Coords": "52.16667,11.66667", "lat": "", "FullName": "Magdeburg, Saxony-Anhalt, Germany", "Region": "Saxony-Anhalt", "id": "Magdeburg, Saxony-Anhalt, Germany [0001]"}, "Ganges, H\u00e9rault, France [0001]": {"City": "Ganges", "PlaceName": "Ganges", "Country": "France", "InLocationDB": true, "lon": 3.70805, "Coords": "43.93409000,3.70805000", "lat": 43.93409, "FullName": "Ganges, H\u00e9rault, France", "_id": "Ganges, H\u00e9rault, France [0001]", "Region": "H\u00e9rault"}, "near Magdeburg, Saxony-Anhalt, Germany [0001]": {"City": "\ufeffnear Magdeburg", "PlaceName": "near Magdeburg", "Country": "Germany", "InLocationDB": "TRUE", "lon": "", "Coords": "52.16667,11.66667", "lat": "", "FullName": "near Magdeburg, Saxony-Anhalt, Germany", "Region": "Saxony-Anhalt", "id": "near Magdeburg, Saxony-Anhalt, Germany [0001]"}, "Geneva, canton of Geneva, Switzerland [0001]": {"City": "\ufeffGeneva", "PlaceName": "Geneva", "Country": "Switzerland", "InLocationDB": "TRUE", "lon": "6.142701", "Coords": "46.20835800,6.14270100", "lat": "46.208358", "FullName": "Geneva, canton of Geneva, Switzerland", "Region": "canton of Geneva", "id": "Geneva, canton of Geneva, Switzerland [0001]"}, "Neuch\u00e2tel, canton of Neuch\u00e2tel, Switzerland [0001]": {"City": "Neuch\u00e2tel", "PlaceName": "Neuch\u00e2tel", "Country": "Switzerland", "InLocationDB": true, "lon": 6.93109, "Coords": "46.99034000,6.93109000", "lat": 46.99034, "FullName": "Neuch\u00e2tel, canton of Neuch\u00e2tel, Switzerland", "_id": "Neuch\u00e2tel, canton of Neuch\u00e2tel, Switzerland [0001]", "Region": "canton of Neuch\u00e2tel"}, "Monthou, ?, France [0001]": {"City": "Monthou", "PlaceName": "Monthou", "Country": "France", "Region": "?", "FullName": "Monthou, ?, France", "_id": "Monthou, ?, France [0001]", "InLocationDB": true}, "Piacenza, Emilia-Romagna, Italy [0001]": {"City": "Piacenza", "PlaceName": "Piacenza", "Country": "Italy", "Region": "Emilia-Romagna", "FullName": "Piacenza, Emilia-Romagna, Italy", "_id": "Piacenza, Emilia-Romagna, Italy [0001]", "InLocationDB": true}, "Mainz, Rhineland-Palatinate, Germany [0001]": {"City": "\ufeffMainz", "PlaceName": "Mainz", "Country": "Germany", "InLocationDB": "TRUE", "lon": "8.27232", "Coords": "50.00056000,8.27232000", "lat": "50.00056", "FullName": "Mainz, Rhineland-Palatinate, Germany", "Region": "Rhineland-Palatinate", "id": "Mainz, Rhineland-Palatinate, Germany [0001]"}, "Les Aygalades, Marseille, Bouches-du-Rh\u00f4ne, France [0001]": {"City": "Les Aygalades, Marseille", "PlaceName": "Les Aygalades, Marseille", "Country": "France", "Region": "Bouches-du-Rh\u00f4ne", "FullName": "Les Aygalades, Marseille, Bouches-du-Rh\u00f4ne, France", "_id": "Les Aygalades, Marseille, Bouches-du-Rh\u00f4ne, France [0001]", "InLocationDB": true}, "ch\u00e2teau de Montjeu, near Autun, Sa\u00f4ne-et-Loire, France [0001]": {"City": "ch\u00e2teau de Montjeu, near Autun", "PlaceName": "ch\u00e2teau de Montjeu, near Autun", "Country": "France", "Region": "Sa\u00f4ne-et-Loire", "FullName": "ch\u00e2teau de Montjeu, near Autun, Sa\u00f4ne-et-Loire, France", "_id": "ch\u00e2teau de Montjeu, near Autun, Sa\u00f4ne-et-Loire, France [0001]", "InLocationDB": true}, "Arpajon, Essonne, France [0001]": {"City": "Arpajon", "PlaceName": "Arpajon", "Country": "France", "Region": "Essonne", "FullName": "Arpajon, Essonne, France", "_id": "Arpajon, Essonne, France [0001]", "InLocationDB": true}, "Maulevrier, near Ch\u00e2tillon-sur-S\u00eavre, Anjou, France [0001]": {"City": "Maulevrier, near Ch\u00e2tillon-sur-S\u00eavre", "PlaceName": "Maulevrier, near Ch\u00e2tillon-sur-S\u00eavre", "Country": "France", "Region": "Anjou", "FullName": "Maulevrier, near Ch\u00e2tillon-sur-S\u00eavre, Anjou, France", "_id": "Maulevrier, near Ch\u00e2tillon-sur-S\u00eavre, Anjou, France [0001]", "InLocationDB": true}, "Bologna, Emilia-Romagna, Italy [0001]": {"City": "\ufeffBologna", "PlaceName": "Bologna", "Country": "Italy", "InLocationDB": "TRUE", "lon": "11.34517", "Coords": "44.50483000,11.34517000", "lat": "44.50483", "FullName": "Bologna, Emilia-Romagna, Italy", "Region": "Emilia-Romagna", "id": "Bologna, Emilia-Romagna, Italy [0001]"}, "Champteloup, Touraine, France [0001]": {"City": "\ufeffChampteloup", "PlaceName": "Champteloup", "Country": "France", "InLocationDB": "TRUE", "lon": "", "Coords": "47.391111,0.970278", "lat": "", "FullName": "Champteloup, Touraine, France", "Region": "Touraine", "id": "Champteloup, Touraine, France [0001]"}, "Lierre/Lier, province of Antwerp, Belgium [0001]": {"City": "Lierre/Lier", "PlaceName": "Lierre/Lier", "Country": "Belgium", "Region": "province of Antwerp", "FullName": "Lierre/Lier, province of Antwerp, Belgium", "_id": "Lierre/Lier, province of Antwerp, Belgium [0001]", "InLocationDB": true}, "ch\u00e2teau de Fortoiseau, Villiers-en-Bi\u00e8re, Seine-et-Marne, France [0001]": {"City": "ch\u00e2teau de Fortoiseau, Villiers-en-Bi\u00e8re", "PlaceName": "ch\u00e2teau de Fortoiseau, Villiers-en-Bi\u00e8re", "Country": "France", "Region": "Seine-et-Marne", "FullName": "ch\u00e2teau de Fortoiseau, Villiers-en-Bi\u00e8re, Seine-et-Marne, France", "_id": "ch\u00e2teau de Fortoiseau, Villiers-en-Bi\u00e8re, Seine-et-Marne, France [0001]", "InLocationDB": true}, "Reichenbach, near Meiringen, canton of Bern, Switzerland [0001]": {"City": "\ufeffReichenbach, near Meiringen", "PlaceName": "Reichenbach, near Meiringen", "Country": "Switzerland", "InLocationDB": "TRUE", "lon": "", "Coords": "46.62542,7.69362", "lat": "", "FullName": "Reichenbach, near Meiringen, canton of Bern, Switzerland", "Region": "canton of Bern", "id": "Reichenbach, near Meiringen, canton of Bern, Switzerland [0001]"}, "Rammenau, Saxony, Germany [0001]": {"City": "\ufeffRammenau", "PlaceName": "Rammenau", "Country": "Germany", "InLocationDB": "TRUE", "lon": "", "Coords": "53.09972,12.89885", "lat": "", "FullName": "Rammenau, Saxony, Germany", "Region": "Saxony", "id": "Rammenau, Saxony, Germany [0001]"}, "Reggio Emilia, Emilia-Romagna, Italy [0001]": {"City": "Reggio Emilia", "PlaceName": "Reggio Emilia", "Country": "Italy", "Region": "Emilia-Romagna", "FullName": "Reggio Emilia, Emilia-Romagna, Italy", "_id": "Reggio Emilia, Emilia-Romagna, Italy [0001]", "InLocationDB": true}, "Landrecies, Nord, France [0001]": {"City": "\ufeffLandrecies", "PlaceName": "Landrecies", "Country": "France", "InLocationDB": "TRUE", "lon": "3.68928", "Coords": "50.12491000,3.68928000", "lat": "50.12491", "FullName": "Landrecies, Nord, France", "Region": "Nord", "id": "Landrecies, Nord, France [0001]"}, "ch\u00e2teau d'Ussi\u00e8res, Ropraz, canton of Vaud, Switzerland [0001]": {"City": "ch\u00e2teau d'Ussi\u00e8res, Ropraz", "PlaceName": "ch\u00e2teau d'Ussi\u00e8res, Ropraz", "Country": "Switzerland", "Region": "canton of Vaud", "FullName": "ch\u00e2teau d'Ussi\u00e8res, Ropraz, canton of Vaud, Switzerland", "_id": "ch\u00e2teau d'Ussi\u00e8res, Ropraz, canton of Vaud, Switzerland [0001]", "InLocationDB": true}, "Richmond upon Thames, Greater London, England [0001]": {"City": "Richmond upon Thames", "PlaceName": "Richmond upon Thames", "Country": "England", "Region": "Greater London", "FullName": "Richmond upon Thames, Greater London, England", "_id": "Richmond upon Thames, Greater London, England [0001]", "InLocationDB": true}, "Annecy, Haute-Savoie, France [0001]": {"City": "Annecy", "PlaceName": "Annecy", "Country": "France", "Region": "Haute-Savoie", "FullName": "Annecy, Haute-Savoie, France", "_id": "Annecy, Haute-Savoie, France [0001]", "InLocationDB": true}, "La Servette, canton of Geneva, Switzerland [0001]": {"City": "La Servette", "PlaceName": "La Servette", "Country": "Switzerland", "Region": "canton of Geneva", "FullName": "La Servette, canton of Geneva, Switzerland", "_id": "La Servette, canton of Geneva, Switzerland [0001]", "InLocationDB": true}, "Istanbul/Constantinople, province of Marmara, Turkey [0001]": {"City": "Istanbul/Constantinople", "PlaceName": "Istanbul/Constantinople", "Country": "Turkey", "Region": "province of Marmara", "FullName": "Istanbul/Constantinople, province of Marmara, Turkey", "_id": "Istanbul/Constantinople, province of Marmara, Turkey [0001]", "InLocationDB": true}, "Le Champbonin, Brousseval, Haute-Marne, France [0001]": {"City": "Le Champbonin, Brousseval", "PlaceName": "Le Champbonin, Brousseval", "Country": "France", "Region": "Haute-Marne", "FullName": "Le Champbonin, Brousseval, Haute-Marne, France", "_id": "Le Champbonin, Brousseval, Haute-Marne, France [0001]", "InLocationDB": true}, "Pr\u00e9gny-Chamb\u00e9sy, canton of Geneva, Switzerland [0001]": {"City": "Pr\u00e9gny-Chamb\u00e9sy", "PlaceName": "Pr\u00e9gny-Chamb\u00e9sy", "Country": "Switzerland", "InLocationDB": true, "lon": 6.14695, "Coords": "46.24330000,6.14695000", "lat": 46.2433, "FullName": "Pr\u00e9gny-Chamb\u00e9sy, canton of Geneva, Switzerland", "_id": "Pr\u00e9gny-Chamb\u00e9sy, canton of Geneva, Switzerland [0001]", "Region": "canton of Geneva"}, "Grai, Franche Comt\u00e9, France [0001]": {"City": "Grai", "PlaceName": "Grai", "Country": "France", "Region": "Franche Comt\u00e9", "FullName": "Grai, Franche Comt\u00e9, France", "_id": "Grai, Franche Comt\u00e9, France [0001]", "InLocationDB": true}, "Sceaux, Hauts-de-Seine, France [0001]": {"City": "\ufeffSceaux", "PlaceName": "Sceaux", "Country": "France", "InLocationDB": "TRUE", "lon": "", "Coords": "48.77644,2.29026", "lat": "", "FullName": "Sceaux, Hauts-de-Seine, France", "Region": "Hauts-de-Seine", "id": "Sceaux, Hauts-de-Seine, France [0001]"}, "Olomouc, Olomouc region, Czech Republic [0001]": {"City": "\ufeffOlomouc", "PlaceName": "Olomouc", "Country": "Czech Republic", "InLocationDB": "TRUE", "lon": "", "Coords": "49.59552,17.25175", "lat": "", "FullName": "Olomouc, Olomouc region, Czech Republic", "Region": "Olomouc region", "id": "Olomouc, Olomouc region, Czech Republic [0001]"}, "Etiolles, Essonne, France [0001]": {"City": "Etiolles", "PlaceName": "Etiolles", "Country": "France", "InLocationDB": true, "lon": 2.47236, "Coords": "48.63682000,2.47236000", "lat": 48.63682, "FullName": "Etiolles, Essonne, France", "_id": "Etiolles, Essonne, France [0001]", "Region": "Essonne"}, "Hornoy-le-Bourg, Somme, France [0001]": {"City": "\ufeffHornoy-le-Bourg", "PlaceName": "Hornoy-le-Bourg", "Country": "France", "InLocationDB": "TRUE", "lon": "", "Coords": "49.85,1.9", "lat": "", "FullName": "Hornoy-le-Bourg, Somme, France", "Region": "Somme", "id": "Hornoy-le-Bourg, Somme, France [0001]"}, "Lies, Alsace region, France [0001]": {"City": "Lies", "PlaceName": "Lies", "Country": "France", "Region": "Alsace region", "FullName": "Lies, Alsace region, France", "_id": "Lies, Alsace region, France [0001]", "InLocationDB": true}, "Portobelo, province of Col\u00f3n, Panama [0001]": {"City": "Portobelo", "PlaceName": "Portobelo", "Country": "Panama", "InLocationDB": true, "lon": -79.65508, "Coords": "9.54995000,-79.65508000", "lat": 9.54995, "FullName": "Portobelo, province of Col\u00f3n, Panama", "_id": "Portobelo, province of Col\u00f3n, Panama [0001]", "Region": "province of Col\u00f3n"}, "Bordeaux, Gironde, France [0001]": {"City": "\ufeffBordeaux", "PlaceName": "Bordeaux", "Country": "France", "InLocationDB": "TRUE", "lon": "-0.581039", "Coords": "44.83663500,-0.58103900", "lat": "44.836635", "FullName": "Bordeaux, Gironde, France", "Region": "Gironde", "id": "Bordeaux, Gironde, France [0001]"}, "Les D\u00e9lices, near Geneva, canton of Geneva, France [0001]": {"City": "Les D\u00e9lices, near Geneva", "PlaceName": "Les D\u00e9lices, near Geneva", "Country": "France", "Region": "canton of Geneva", "FullName": "Les D\u00e9lices, near Geneva, canton of Geneva, France", "_id": "Les D\u00e9lices, near Geneva, canton of Geneva, France [0001]", "InLocationDB": true}, "Aachen, North Rhine-Westphalia, Germany [0001]": {"City": "\ufeffAachen", "PlaceName": "Aachen", "Country": "Germany", "InLocationDB": "TRUE", "lon": "6.08849", "Coords": "50.77814000,6.08849000", "lat": "50.77814", "FullName": "Aachen, North Rhine-Westphalia, Germany", "Region": "North Rhine-Westphalia", "id": "Aachen, North Rhine-Westphalia, Germany [0001]"}, "St-Malo, Ille-et-Vilaine, France [0001]": {"City": "\ufeffSt-Malo", "PlaceName": "St-Malo", "Country": "France", "InLocationDB": "TRUE", "lon": "", "Coords": "48.65,-2.01667", "lat": "", "FullName": "St-Malo, Ille-et-Vilaine, France", "Region": "Ille-et-Vilaine", "id": "St-Malo, Ille-et-Vilaine, France [0001]"}, "near Brunswick, Lower Saxony, Germany [0001]": {"City": "near Brunswick", "PlaceName": "near Brunswick", "Country": "Germany", "Region": "Lower Saxony", "FullName": "near Brunswick, Lower Saxony, Germany", "_id": "near Brunswick, Lower Saxony, Germany [0001]", "InLocationDB": true}, "Bruel, near Orl\u00e9ans, Loiret, France [0001]": {"City": "Bruel, near Orl\u00e9ans", "PlaceName": "Bruel, near Orl\u00e9ans", "Country": "France", "Region": "Loiret", "FullName": "Bruel, near Orl\u00e9ans, Loiret, France", "_id": "Bruel, near Orl\u00e9ans, Loiret, France [0001]", "InLocationDB": true}, "Wabern, Hesse, Germany [0001]": {"City": "Wabern", "PlaceName": "Wabern", "Country": "Germany", "Region": "Hesse", "FullName": "Wabern, Hesse, Germany", "_id": "Wabern, Hesse, Germany [0001]", "InLocationDB": true}, "Carman, Alsace region, France [0001]": {"City": "\ufeffCarman", "PlaceName": "Carman", "Country": "France", "InLocationDB": "TRUE", "lon": "1.71832", "Coords": "46.71244800,1.71832000", "lat": "46.712448", "FullName": "Carman, Alsace region, France", "Region": "Alsace region", "id": "Carman, Alsace region, France [0001]"}, "Blois, Loir-et-Cher, France [0001]": {"City": "\ufeffBlois", "PlaceName": "Blois", "Country": "France", "InLocationDB": "TRUE", "lon": "1.3333", "Coords": "47.60000000,1.33330000", "lat": "47.6", "FullName": "Blois, Loir-et-Cher, France", "Region": "Loir-et-Cher", "id": "Blois, Loir-et-Cher, France [0001]"}, "Geneken, near Breda, North Brabant, Netherlands [0001]": {"City": "Geneken, near Breda", "PlaceName": "Geneken, near Breda", "Country": "Netherlands", "Region": "North Brabant", "FullName": "Geneken, near Breda, North Brabant, Netherlands", "_id": "Geneken, near Breda, North Brabant, Netherlands [0001]", "InLocationDB": true}, "ch\u00e2teau de Maupertuis, Meylan, Lot-et-Garonne, France [0001]": {"City": "ch\u00e2teau de Maupertuis, Meylan", "PlaceName": "ch\u00e2teau de Maupertuis, Meylan", "Country": "France", "Region": "Lot-et-Garonne", "FullName": "ch\u00e2teau de Maupertuis, Meylan, Lot-et-Garonne, France", "_id": "ch\u00e2teau de Maupertuis, Meylan, Lot-et-Garonne, France [0001]", "InLocationDB": true}, "Ch\u00e2teau de Tournebu, near Gaillon, Normandie, France [0001]": {"City": "Ch\u00e2teau de Tournebu, near Gaillon", "PlaceName": "Ch\u00e2teau de Tournebu, near Gaillon", "Country": "France", "Region": "Normandie", "FullName": "Ch\u00e2teau de Tournebu, near Gaillon, Normandie, France", "_id": "Ch\u00e2teau de Tournebu, near Gaillon, Normandie, France [0001]", "InLocationDB": true}, "near Lausanne, canton of Vaud, Switzerland [0001]": {"City": "\ufeffnear Lausanne", "PlaceName": "near Lausanne", "Country": "Switzerland", "InLocationDB": "TRUE", "lon": "", "Coords": "46.516,6.63282", "lat": "", "FullName": "near Lausanne, canton of Vaud, Switzerland", "Region": "canton of Vaud", "id": "near Lausanne, canton of Vaud, Switzerland [0001]"}, "Karlsruhe, Baden-W\u00fcrttemberg, Germany [0001]": {"City": "Karlsruhe", "PlaceName": "Karlsruhe", "Country": "Germany", "Region": "Baden-W\u00fcrttemberg", "FullName": "Karlsruhe, Baden-W\u00fcrttemberg, Germany", "_id": "Karlsruhe, Baden-W\u00fcrttemberg, Germany [0001]", "InLocationDB": true}, "Strawberry Hill, near Twickenham, Greater London, England [0001]": {"City": "Strawberry Hill, near Twickenham", "PlaceName": "Strawberry Hill, near Twickenham", "Country": "England", "Region": "Greater London", "FullName": "Strawberry Hill, near Twickenham, Greater London, England", "_id": "Strawberry Hill, near Twickenham, Greater London, England [0001]", "InLocationDB": true}, "Versailles, Yvelines, France [0001]": {"City": "\ufeffVersailles", "PlaceName": "Versailles", "Country": "France", "InLocationDB": "TRUE", "lon": "2.13112", "Coords": "48.80193500,2.13112000", "lat": "48.801935", "FullName": "Versailles, Yvelines, France", "Region": "Yvelines", "id": "Versailles, Yvelines, France [0001]"}, "Clermont-Ferrand, Puy-de-D\u00f4me, France [0001]": {"City": "Clermont-Ferrand", "PlaceName": "Clermont-Ferrand", "Country": "France", "InLocationDB": true, "lon": 3.08183, "Coords": "45.77762000,3.08183000", "lat": 45.77762, "FullName": "Clermont-Ferrand, Puy-de-D\u00f4me, France", "_id": "Clermont-Ferrand, Puy-de-D\u00f4me, France [0001]", "Region": "Puy-de-D\u00f4me"}, "Hoff, Saxony, Germany [0001]": {"City": "Hoff", "PlaceName": "Hoff", "Country": "Germany", "Region": "Saxony", "FullName": "Hoff, Saxony, Germany", "_id": "Hoff, Saxony, Germany [0001]", "InLocationDB": true}, "Beringhem, Bennekom, Gelderland/Guelders, Netherlands [0001]": {"City": "Beringhem, Bennekom", "PlaceName": "Beringhem, Bennekom", "Country": "Netherlands", "Region": "Gelderland/Guelders", "FullName": "Beringhem, Bennekom, Gelderland/Guelders, Netherlands", "_id": "Beringhem, Bennekom, Gelderland/Guelders, Netherlands [0001]", "InLocationDB": true}, "Bourg-St-Andr\u00e9ol, Rh\u00f4ne-Alpes, France [0001]": {"City": "Bourg-St-Andr\u00e9ol", "PlaceName": "Bourg-St-Andr\u00e9ol", "Country": "France", "Region": "Rh\u00f4ne-Alpes", "FullName": "Bourg-St-Andr\u00e9ol, Rh\u00f4ne-Alpes, France", "_id": "Bourg-St-Andr\u00e9ol, Rh\u00f4ne-Alpes, France [0001]", "InLocationDB": true}, "Beaune, C\u00f4te-d'Or, France [0001]": {"City": "Beaune", "PlaceName": "Beaune", "Country": "France", "Region": "C\u00f4te-d'Or", "FullName": "Beaune, C\u00f4te-d'Or, France", "_id": "Beaune, C\u00f4te-d'Or, France [0001]", "InLocationDB": true}, "Pisa, Tuscany, Italy [0001]": {"City": "Pisa", "PlaceName": "Pisa", "Country": "Italy", "InLocationDB": true, "lon": 10.39946, "Coords": "43.70996000,10.39946000", "lat": 43.70996, "FullName": "Pisa, Tuscany, Italy", "_id": "Pisa, Tuscany, Italy [0001]", "Region": "Tuscany"}, "ch\u00e2teau des Places, near Chinon, Touraine, France [0001]": {"City": "ch\u00e2teau des Places, near Chinon", "PlaceName": "ch\u00e2teau des Places, near Chinon", "Country": "France", "Region": "Touraine", "FullName": "ch\u00e2teau des Places, near Chinon, Touraine, France", "_id": "ch\u00e2teau des Places, near Chinon, Touraine, France [0001]", "InLocationDB": true}, "Nantes, Loire-Atlantique, France [0001]": {"City": "Nantes", "PlaceName": "Nantes", "Country": "France", "Region": "Loire-Atlantique", "FullName": "Nantes, Loire-Atlantique, France", "_id": "Nantes, Loire-Atlantique, France [0001]", "InLocationDB": true}, "near Mainz, Rhineland-Palatinate, Germany [0001]": {"City": "\ufeffnear Mainz", "PlaceName": "near Mainz", "Country": "Germany", "InLocationDB": "TRUE", "lon": "8.27232", "Coords": "50.00056000,8.27232000", "lat": "50.00056", "FullName": "near Mainz, Rhineland-Palatinate, Germany", "Region": "Rhineland-Palatinate", "id": "near Mainz, Rhineland-Palatinate, Germany [0001]"}, "Wittenberg, Saxony-Anhalt, Germany [0001]": {"City": "Wittenberg", "PlaceName": "Wittenberg", "Country": "Germany", "InLocationDB": true, "lon": 12.65, "Coords": "51.88330000,12.65000000", "lat": 51.8833, "FullName": "Wittenberg, Saxony-Anhalt, Germany", "_id": "Wittenberg, Saxony-Anhalt, Germany [0001]", "Region": "Saxony-Anhalt"}, "Ch\u00e2teau de la Marche, near Dijon, C\u00f4te-d'Or, France [0001]": {"City": "Ch\u00e2teau de la Marche, near Dijon", "PlaceName": "Ch\u00e2teau de la Marche, near Dijon", "Country": "France", "Region": "C\u00f4te-d'Or", "FullName": "Ch\u00e2teau de la Marche, near Dijon, C\u00f4te-d'Or, France", "_id": "Ch\u00e2teau de la Marche, near Dijon, C\u00f4te-d'Or, France [0001]", "InLocationDB": true}, "Hamelin, Hanover, Germany [0001]": {"City": "\ufeffHamelin", "PlaceName": "Hamelin", "Country": "Germany", "InLocationDB": "TRUE", "lon": "", "Coords": "52.103056,\u00a09.36", "lat": "", "FullName": "Hamelin, Hanover, Germany", "Region": "Hanover", "id": "Hamelin, Hanover, Germany [0001]"}, "Ch\u00e2lons-sur-Marne, Marne, France [0001]": {"City": "Ch\u00e2lons-sur-Marne", "PlaceName": "Ch\u00e2lons-sur-Marne", "Country": "France", "Region": "Marne", "FullName": "Ch\u00e2lons-sur-Marne, Marne, France", "_id": "Ch\u00e2lons-sur-Marne, Marne, France [0001]", "InLocationDB": true}, "Genoa, Liguria, Italy [0001]": {"City": "\ufeffGenoa", "PlaceName": "Genoa", "Country": "Italy", "InLocationDB": "TRUE", "lon": "8.9389", "Coords": "44.41034000,8.93890000", "lat": "44.41034", "FullName": "Genoa, Liguria, Italy", "Region": "Liguria", "id": "Genoa, Liguria, Italy [0001]"}, "Enghien-les-Bains, Val-d'Oise, France [0001]": {"City": "\ufeffEnghien-les-Bains", "PlaceName": "Enghien-les-Bains", "Country": "France", "InLocationDB": "TRUE", "lon": "", "Coords": "48.96667,2.31667", "lat": "", "FullName": "Enghien-les-Bains, Val-d'Oise, France", "Region": "Val-d'Oise", "id": "Enghien-les-Bains, Val-d'Oise, France [0001]"}, "Ch\u00e2tenay, near Sceaux, Hauts-de-Seine, France [0001]": {"City": "Ch\u00e2tenay, near Sceaux", "PlaceName": "Ch\u00e2tenay, near Sceaux", "Country": "France", "Region": "Hauts-de-Seine", "FullName": "Ch\u00e2tenay, near Sceaux, Hauts-de-Seine, France", "_id": "Ch\u00e2tenay, near Sceaux, Hauts-de-Seine, France [0001]", "InLocationDB": true}, "Autun, Sa\u00f4ne-et-Loire, France [0001]": {"City": "Autun", "PlaceName": "Autun", "Country": "France", "Region": "Sa\u00f4ne-et-Loire", "FullName": "Autun, Sa\u00f4ne-et-Loire, France", "_id": "Autun, Sa\u00f4ne-et-Loire, France [0001]", "InLocationDB": true}, "Herendorf, Silesia, Poland [0001]": {"City": "\ufeffHerendorf", "PlaceName": "Herendorf", "Country": "Poland", "InLocationDB": "TRUE", "lon": "", "Coords": "52.886389,\u00a014.715", "lat": "", "FullName": "Herendorf, Silesia, Poland", "Region": "Silesia", "id": "Herendorf, Silesia, Poland [0001]"}, "Bellevue, Meudon, Hauts-de-Seine, France [0001]": {"City": "Bellevue, Meudon", "PlaceName": "Bellevue, Meudon", "Country": "France", "Region": "Hauts-de-Seine", "FullName": "Bellevue, Meudon, Hauts-de-Seine, France", "_id": "Bellevue, Meudon, Hauts-de-Seine, France [0001]", "InLocationDB": true}, "Cesena, Emilia-Romagna, Italy [0001]": {"City": "Cesena", "PlaceName": "Cesena", "Country": "Italy", "Region": "Emilia-Romagna", "FullName": "Cesena, Emilia-Romagna, Italy", "_id": "Cesena, Emilia-Romagna, Italy [0001]", "InLocationDB": true}, "Freiberg, Saxony, Germany [0001]": {"City": "\ufeffFreiberg", "PlaceName": "Freiberg", "Country": "Germany", "InLocationDB": "TRUE", "lon": "", "Coords": "50.91667,13.36667", "lat": "", "FullName": "Freiberg, Saxony, Germany", "Region": "Saxony", "id": "Freiberg, Saxony, Germany [0001]"}, "G\u00f6ttingen, Lower Saxony, Germany [0001]": {"City": "G\u00f6ttingen", "PlaceName": "G\u00f6ttingen", "Country": "Germany", "Region": "Lower Saxony", "FullName": "G\u00f6ttingen, Lower Saxony, Germany", "_id": "G\u00f6ttingen, Lower Saxony, Germany [0001]", "InLocationDB": true}, "Strzelin/Strehlen, Lower Silesia, Poland [0001]": {"City": "\ufeffStrzelin/Strehlen", "PlaceName": "Strzelin/Strehlen", "Country": "Poland", "InLocationDB": "TRUE", "lon": "", "Coords": "53.18333,11.8", "lat": "", "FullName": "Strzelin/Strehlen, Lower Silesia, Poland", "Region": "Lower Silesia", "id": "Strzelin/Strehlen, Lower Silesia, Poland [0001]"}, "Avignon, Vaucluse, France [0001]": {"City": "Avignon", "PlaceName": "Avignon", "Country": "France", "InLocationDB": true, "lon": 4.80602, "Coords": "43.94876000,4.80602000", "lat": 43.94876, "FullName": "Avignon, Vaucluse, France", "_id": "Avignon, Vaucluse, France [0001]", "Region": "Vaucluse"}, "Tournon-sur-Rh\u00f4ne, Ard\u00e8che, France [0001]": {"City": "Tournon-sur-Rh\u00f4ne", "PlaceName": "Tournon-sur-Rh\u00f4ne", "Country": "France", "Region": "Ard\u00e8che", "FullName": "Tournon-sur-Rh\u00f4ne, Ard\u00e8che, France", "_id": "Tournon-sur-Rh\u00f4ne, Ard\u00e8che, France [0001]", "InLocationDB": true}, "Mannheim, Baden-W\u00fcrttemberg, Germany [0001]": {"City": "Mannheim", "PlaceName": "Mannheim", "Country": "Germany", "InLocationDB": true, "lon": 8.466785, "Coords": "49.48651000,8.46678500", "lat": 49.48651, "FullName": "Mannheim, Baden-W\u00fcrttemberg, Germany", "_id": "Mannheim, Baden-W\u00fcrttemberg, Germany [0001]", "Region": "Baden-W\u00fcrttemberg"}, "Courpeau, Bretagne, France [0001]": {"City": "Courpeau", "PlaceName": "Courpeau", "Country": "France", "Region": "Bretagne", "FullName": "Courpeau, Bretagne, France", "_id": "Courpeau, Bretagne, France [0001]", "InLocationDB": true}, "Tours, Indre-et-Loire, France [0001]": {"City": "Tours", "PlaceName": "Tours", "Country": "France", "Region": "Indre-et-Loire", "FullName": "Tours, Indre-et-Loire, France", "_id": "Tours, Indre-et-Loire, France [0001]", "InLocationDB": true}, "Grandcour, canton of Vaud, Switzerland [0001]": {"City": "\ufeffGrandcour", "PlaceName": "Grandcour", "Country": "Switzerland", "InLocationDB": "TRUE", "lon": "", "Coords": "46.87185,6.9284", "lat": "", "FullName": "Grandcour, canton of Vaud, Switzerland", "Region": "canton of Vaud", "id": "Grandcour, canton of Vaud, Switzerland [0001]"}, "Kamienna G\u00f3ra, Silesia, Poland [0001]": {"City": "Kamienna G\u00f3ra", "PlaceName": "Kamienna G\u00f3ra", "Country": "Poland", "Region": "Silesia", "FullName": "Kamienna G\u00f3ra, Silesia, Poland", "_id": "Kamienna G\u00f3ra, Silesia, Poland [0001]", "InLocationDB": true}, "Les Ormes, Vienne, France [0001]": {"City": "Les Ormes", "PlaceName": "Les Ormes", "Country": "France", "Region": "Vienne", "FullName": "Les Ormes, Vienne, France", "_id": "Les Ormes, Vienne, France [0001]", "InLocationDB": true}, "Spa, province of Li\u00e8ge, Belgium [0001]": {"City": "Spa", "PlaceName": "Spa", "Country": "Belgium", "InLocationDB": true, "lon": 5.866667, "Coords": "50.5,5.866667", "lat": 50.5, "FullName": "Spa, province of Li\u00e8ge, Belgium", "_id": "Spa, province of Li\u00e8ge, Belgium [0001]", "Region": "province of Li\u00e8ge"}, "Oliva, Valencia, Spain [0001]": {"City": "Oliva", "PlaceName": "Oliva", "Country": "Spain", "Region": "Valencia", "FullName": "Oliva, Valencia, Spain", "_id": "Oliva, Valencia, Spain [0001]", "InLocationDB": true}, "La Rivi\u00e8re, Is\u00e8re, France [0001]": {"City": "La Rivi\u00e8re", "PlaceName": "La Rivi\u00e8re", "Country": "France", "Region": "Is\u00e8re", "FullName": "La Rivi\u00e8re, Is\u00e8re, France", "_id": "La Rivi\u00e8re, Is\u00e8re, France [0001]", "InLocationDB": true}, "Olau, Poland [0001]": {"City": "\ufeffOlau", "PlaceName": "Olau", "Country": "Poland", "InLocationDB": "TRUE", "lon": "11.53036", "Coords": "47.75916000,11.53036000", "lat": "47.75916", "FullName": "Olau, Poland", "Region": "", "id": "Olau, Poland [0001]"}, "Chennevi\u00e8res, near Pontchartrain, Alsace region, France [0001]": {"City": "Chennevi\u00e8res, near Pontchartrain", "PlaceName": "Chennevi\u00e8res, near Pontchartrain", "Country": "France", "Region": "Alsace region", "FullName": "Chennevi\u00e8res, near Pontchartrain, Alsace region, France", "_id": "Chennevi\u00e8res, near Pontchartrain, Alsace region, France [0001]", "InLocationDB": true}, "Ch\u00e2teigneraye, Poitou, France [0001]": {"City": "Ch\u00e2teigneraye", "PlaceName": "Ch\u00e2teigneraye", "Country": "France", "Region": "Poitou", "FullName": "Ch\u00e2teigneraye, Poitou, France", "_id": "Ch\u00e2teigneraye, Poitou, France [0001]", "InLocationDB": true}, "C\u00e9ligny, canton of Geneva, Switzerland [0001]": {"City": "C\u00e9ligny", "PlaceName": "C\u00e9ligny", "Country": "Switzerland", "Region": "canton of Geneva", "FullName": "C\u00e9ligny, canton of Geneva, Switzerland", "_id": "C\u00e9ligny, canton of Geneva, Switzerland [0001]", "InLocationDB": true}, "Montbrison, Loire, France [0001]": {"City": "Montbrison", "PlaceName": "Montbrison", "Country": "France", "Region": "Loire", "FullName": "Montbrison, Loire, France", "_id": "Montbrison, Loire, France [0001]", "InLocationDB": true}, "Leipzig, Saxony, Germany [0001]": {"City": "\ufeffLeipzig", "PlaceName": "Leipzig", "Country": "Germany", "InLocationDB": "TRUE", "lon": "12.38552", "Coords": "51.34482000,12.38552000", "lat": "51.34482", "FullName": "Leipzig, Saxony, Germany", "Region": "Saxony", "id": "Leipzig, Saxony, Germany [0001]"}, "Czarskoe Selo/Pushkin, St Petersburg, Russia [0001]": {"City": "\ufeffCzarskoe Selo/Pushkin", "PlaceName": "Czarskoe Selo/Pushkin", "Country": "Russia", "InLocationDB": "TRUE", "lon": "", "Coords": "59.7233,30.4158", "lat": "", "FullName": "Czarskoe Selo/Pushkin, St Petersburg, Russia", "Region": "St Petersburg", "id": "Czarskoe Selo/Pushkin, St Petersburg, Russia [0001]"}, "Genthod, near Geneva, canton of Geneva, Switzerland [0001]": {"City": "Genthod, near Geneva", "PlaceName": "Genthod, near Geneva", "Country": "Switzerland", "Region": "canton of Geneva", "FullName": "Genthod, near Geneva, canton of Geneva, Switzerland", "_id": "Genthod, near Geneva, canton of Geneva, Switzerland [0001]", "InLocationDB": true}, "Vienna, state of Vienna, Austria [0001]": {"City": "\ufeffVienna", "PlaceName": "Vienna", "Country": "Austria", "InLocationDB": "TRUE", "lon": "16.36881", "Coords": "48.20255000,16.36881000", "lat": "48.20255", "FullName": "Vienna, state of Vienna, Austria", "Region": "state of Vienna", "id": "Vienna, state of Vienna, Austria [0001]"}, "near Colmar, Haut-Rhin, France [0001]": {"City": "\ufeffnear Colmar", "PlaceName": "near Colmar", "Country": "France", "InLocationDB": "TRUE", "lon": "", "Coords": "48.08333,7.36667", "lat": "", "FullName": "near Colmar, Haut-Rhin, France", "Region": "Haut-Rhin", "id": "near Colmar, Haut-Rhin, France [0001]"}, "The Hague, South Holland, Netherlands [0001]": {"City": "\ufeffThe Hague", "PlaceName": "The Hague", "Country": "Netherlands", "InLocationDB": "TRUE", "lon": "", "Coords": "52.07667,4.29861", "lat": "", "FullName": "The Hague, South Holland, Netherlands", "Region": "South Holland", "id": "The Hague, South Holland, Netherlands [0001]"}, "Netherlands [0001]": {"PlaceName": "Netherlands", "Country": "Netherlands", "InLocationDB": true, "lon": 5.33033, "Coords": "52.10808900,5.33033000", "lat": 52.108089, "FullName": "Netherlands", "_id": "Netherlands [0001]"}, "Fort de L'Ecluse, Ain, France [0001]": {"City": "Fort de L'Ecluse", "PlaceName": "Fort de L'Ecluse", "Country": "France", "Region": "Ain", "FullName": "Fort de L'Ecluse, Ain, France", "_id": "Fort de L'Ecluse, Ain, France [0001]", "InLocationDB": true}, "Lorient/L'Orient, Morbihan, France [0001]": {"City": "Lorient/L'Orient", "PlaceName": "Lorient/L'Orient", "Country": "France", "Region": "Morbihan", "FullName": "Lorient/L'Orient, Morbihan, France", "_id": "Lorient/L'Orient, Morbihan, France [0001]", "InLocationDB": true}, "Frankfurt am Main, Hesse, Germany [0001]": {"City": "\ufeffFrankfurt am Main", "PlaceName": "Frankfurt am Main", "Country": "Germany", "InLocationDB": "TRUE", "lon": "8.6834", "Coords": "50.11203000,8.68340000", "lat": "50.11203", "FullName": "Frankfurt am Main, Hesse, Germany", "Region": "Hesse", "id": "Frankfurt am Main, Hesse, Germany [0001]"}, "Meissen, Saxony, Germany [0001]": {"City": "\ufeffMeissen", "PlaceName": "Meissen", "Country": "Germany", "InLocationDB": "TRUE", "lon": "", "Coords": "51.16158,13.4737", "lat": "", "FullName": "Meissen, Saxony, Germany", "Region": "Saxony", "id": "Meissen, Saxony, Germany [0001]"}, "Montfalcon, Is\u00e8re, France [0001]": {"City": "Montfalcon", "PlaceName": "Montfalcon", "Country": "France", "Region": "Is\u00e8re", "FullName": "Montfalcon, Is\u00e8re, France", "_id": "Montfalcon, Is\u00e8re, France [0001]", "InLocationDB": true}, "Dalwitz, Mecklenburg-Vorpommern, Germany [0001]": {"City": "Dalwitz", "PlaceName": "Dalwitz", "Country": "Germany", "InLocationDB": true, "lon": 12.53656, "Coords": "53.93368000,12.53656000", "lat": 53.93368, "FullName": "Dalwitz, Mecklenburg-Vorpommern, Germany", "_id": "Dalwitz, Mecklenburg-Vorpommern, Germany [0001]", "Region": "Mecklenburg-Vorpommern"}, "Aubonne, canton of Lausanne, Switzerland [0001]": {"City": "Aubonne", "PlaceName": "Aubonne", "Country": "Switzerland", "Region": "canton of Lausanne", "FullName": "Aubonne, canton of Lausanne, Switzerland", "_id": "Aubonne, canton of Lausanne, Switzerland [0001]", "InLocationDB": true}, "Stuttgart, Baden-W\u00fcrttemberg, Germany [0001]": {"City": "Stuttgart", "PlaceName": "Stuttgart", "Country": "Germany", "InLocationDB": true, "lon": 9.2, "Coords": "48.78330000,9.20000000", "lat": 48.7833, "FullName": "Stuttgart, Baden-W\u00fcrttemberg, Germany", "_id": "Stuttgart, Baden-W\u00fcrttemberg, Germany [0001]", "Region": "Baden-W\u00fcrttemberg"}, "Nancy, Meurthe-et-Moselle, France [0001]": {"City": "Nancy", "PlaceName": "Nancy", "Country": "France", "Region": "Meurthe-et-Moselle", "FullName": "Nancy, Meurthe-et-Moselle, France", "_id": "Nancy, Meurthe-et-Moselle, France [0001]", "InLocationDB": true}, "Florence, Tuscany, Italy [0001]": {"City": "Florence", "PlaceName": "Florence", "Country": "Italy", "InLocationDB": true, "lon": 11.25, "Coords": "43.78300000,11.25000000", "lat": 43.783, "FullName": "Florence, Tuscany, Italy", "_id": "Florence, Tuscany, Italy [0001]", "Region": "Tuscany"}, "Belgium [0001]": {"City": "\ufeff", "PlaceName": "Belgium", "Country": "Belgium", "InLocationDB": "TRUE", "lon": "", "Coords": "50.83333,4", "lat": "", "FullName": "Belgium", "Region": "", "id": "Belgium [0001]"}, "Vor\u00e9, Orne, France [0001]": {"City": "Vor\u00e9", "PlaceName": "Vor\u00e9", "Country": "France", "Region": "Orne", "FullName": "Vor\u00e9, Orne, France", "_id": "Vor\u00e9, Orne, France [0001]", "InLocationDB": true}, "Monrepos, Ludwigsburg, Baden-W\u00fcrttemberg, Germany [0001]": {"City": "Monrepos, Ludwigsburg", "PlaceName": "Monrepos, Ludwigsburg", "Country": "Germany", "InLocationDB": true, "lon": 9.16765, "Coords": "48.92236000,9.16765000", "lat": 48.92236, "FullName": "Monrepos, Ludwigsburg, Baden-W\u00fcrttemberg, Germany", "_id": "Monrepos, Ludwigsburg, Baden-W\u00fcrttemberg, Germany [0001]", "Region": "Baden-W\u00fcrttemberg"}, "Caen, Calvados, France [0001]": {"City": "Caen", "PlaceName": "Caen", "Country": "France", "InLocationDB": true, "lon": -0.36111, "Coords": "49.18436000,-0.36111000", "lat": 49.18436, "FullName": "Caen, Calvados, France", "_id": "Caen, Calvados, France [0001]", "Region": "Calvados"}, "Le Croisic, Loire-Atlantique, France [0001]": {"City": "Le Croisic", "PlaceName": "Le Croisic", "Country": "France", "Region": "Loire-Atlantique", "FullName": "Le Croisic, Loire-Atlantique, France", "_id": "Le Croisic, Loire-Atlantique, France [0001]", "InLocationDB": true}, "Edinburgh, county of Edinburgh, Scotland [0001]": {"City": "Edinburgh", "PlaceName": "Edinburgh", "Country": "Scotland", "InLocationDB": true, "lon": -3.20277, "Coords": "55.95416000,-3.20277000", "lat": 55.95416, "FullName": "Edinburgh, county of Edinburgh, Scotland", "_id": "Edinburgh, county of Edinburgh, Scotland [0001]", "Region": "county of Edinburgh"}, "Schlestat, Haut-Rhin, France [0001]": {"City": "\ufeffSchlestat", "PlaceName": "Schlestat", "Country": "France", "InLocationDB": "TRUE", "lon": "", "Coords": "48.26667,7.45", "lat": "", "FullName": "Schlestat, Haut-Rhin, France", "Region": "Haut-Rhin", "id": "Schlestat, Haut-Rhin, France [0001]"}, "Croissy-Beaubourg, Seine-et-Marne, France [0001]": {"City": "Croissy-Beaubourg", "PlaceName": "Croissy-Beaubourg", "Country": "France", "InLocationDB": true, "lon": 2.65933, "Coords": "48.82852000,2.65933000", "lat": 48.82852, "FullName": "Croissy-Beaubourg, Seine-et-Marne, France", "_id": "Croissy-Beaubourg, Seine-et-Marne, France [0001]", "Region": "Seine-et-Marne"}, "ch\u00e2teau de Pezay, near Blois, Loir-et-Cher, France [0001]": {"City": "ch\u00e2teau de Pezay, near Blois", "PlaceName": "ch\u00e2teau de Pezay, near Blois", "Country": "France", "Region": "Loir-et-Cher", "FullName": "ch\u00e2teau de Pezay, near Blois, Loir-et-Cher, France", "_id": "ch\u00e2teau de Pezay, near Blois, Loir-et-Cher, France [0001]", "InLocationDB": true}, "Pavia, Lombardy, Italy [0001]": {"City": "Pavia", "PlaceName": "Pavia", "Country": "Italy", "InLocationDB": true, "lon": 9.15046, "Coords": "45.19082000,9.15046000", "lat": 45.19082, "FullName": "Pavia, Lombardy, Italy", "_id": "Pavia, Lombardy, Italy [0001]", "Region": "Lombardy"}, "Villars, Vaucluse, France [0001]": {"City": "\ufeffVillars", "PlaceName": "Villars", "Country": "France", "InLocationDB": "TRUE", "lon": "", "Coords": "43.92387,5.40556", "lat": "", "FullName": "Villars, Vaucluse, France", "Region": "Vaucluse", "id": "Villars, Vaucluse, France [0001]"}, "Condrieux, Is\u00e8re, France [0001]": {"City": "Condrieux", "PlaceName": "Condrieux", "Country": "France", "Region": "Is\u00e8re", "FullName": "Condrieux, Is\u00e8re, France", "_id": "Condrieux, Is\u00e8re, France [0001]", "InLocationDB": true}, "Franconville, Val-d'Oise, France [0001]": {"City": "\ufeffFranconville", "PlaceName": "Franconville", "Country": "France", "InLocationDB": "TRUE", "lon": "6.45042", "Coords": "48.50059000,6.45042000", "lat": "48.50059", "FullName": "Franconville, Val-d'Oise, France", "Region": "Val-d'Oise", "id": "Franconville, Val-d'Oise, France [0001]"}, "Les D\u00e9lices, near Geneva, canton of Geneva, Switzerland [0001]": {"City": "Les D\u00e9lices, near Geneva", "PlaceName": "Les D\u00e9lices, near Geneva", "Country": "Switzerland", "Region": "canton of Geneva", "FullName": "Les D\u00e9lices, near Geneva, canton of Geneva, Switzerland", "_id": "Les D\u00e9lices, near Geneva, canton of Geneva, Switzerland [0001]", "InLocationDB": true}, "Strasbourg, Bas-Rhin, France [0001]": {"City": "\ufeffStrasbourg", "PlaceName": "Strasbourg", "Country": "France", "InLocationDB": "TRUE", "lon": "7.73643", "Coords": "48.58508000,7.73643000", "lat": "48.58508", "FullName": "Strasbourg, Bas-Rhin, France", "Region": "Bas-Rhin", "id": "Strasbourg, Bas-Rhin, France [0001]"}, "ch\u00e2teau de Weisenstein, near Cassel, Hesse, Germany [0001]": {"City": "ch\u00e2teau de Weisenstein, near Cassel", "PlaceName": "ch\u00e2teau de Weisenstein, near Cassel", "Country": "Germany", "Region": "Hesse", "FullName": "ch\u00e2teau de Weisenstein, near Cassel, Hesse, Germany", "_id": "ch\u00e2teau de Weisenstein, near Cassel, Hesse, Germany [0001]", "InLocationDB": true}, "Navarre, Spain [0001]": {"PlaceName": "Navarre", "Country": "Spain", "Region": "Navarre", "lon": -1.5, "Coords": "42.66670000,-1.50000000", "lat": 42.6667, "FullName": "Navarre, Spain", "_id": "Navarre, Spain [0001]", "InLocationDB": true}, "Trier, Rhineland-Palatinate, Germany [0001]": {"City": "Trier", "PlaceName": "Trier", "Country": "Germany", "InLocationDB": true, "lon": 6.63652, "Coords": "49.75726000,6.63652000", "lat": 49.75726, "FullName": "Trier, Rhineland-Palatinate, Germany", "_id": "Trier, Rhineland-Palatinate, Germany [0001]", "Region": "Rhineland-Palatinate"}, "La Rochette, near Melun, Seine-et-Marne, France [0001]": {"City": "La Rochette, near Melun", "PlaceName": "La Rochette, near Melun", "Country": "France", "Region": "Seine-et-Marne", "FullName": "La Rochette, near Melun, Seine-et-Marne, France", "_id": "La Rochette, near Melun, Seine-et-Marne, France [0001]", "InLocationDB": true}, "Bayreuth, Bavaria, Germany [0001]": {"City": "\ufeffBayreuth", "PlaceName": "Bayreuth", "Country": "Germany", "InLocationDB": "TRUE", "lon": "11.57102", "Coords": "49.94519000,11.57102000", "lat": "49.94519", "FullName": "Bayreuth, Bavaria, Germany", "Region": "Bavaria", "id": "Bayreuth, Bavaria, Germany [0001]"}, "Cassel, Hesse, Germany [0001]": {"City": "\ufeffCassel", "PlaceName": "Cassel", "Country": "Germany", "InLocationDB": "TRUE", "lon": "", "Coords": "50.43333,7.06667", "lat": "", "FullName": "Cassel, Hesse, Germany", "Region": "Hesse", "id": "Cassel, Hesse, Germany [0001]"}, "near Utrecht, province of Utrecht, Netherlands [0001]": {"City": "\ufeffnear Utrecht", "PlaceName": "near Utrecht", "Country": "Netherlands", "InLocationDB": "TRUE", "lon": "", "Coords": "52.09083,5.12222", "lat": "", "FullName": "near Utrecht, province of Utrecht, Netherlands", "Region": "province of Utrecht", "id": "near Utrecht, province of Utrecht, Netherlands [0001]"}, "Seyssel, Haute-Savoie, France [0001]": {"City": "Seyssel", "PlaceName": "Seyssel", "Country": "France", "Region": "Haute-Savoie", "FullName": "Seyssel, Haute-Savoie, France", "_id": "Seyssel, Haute-Savoie, France [0001]", "InLocationDB": true}, "Kosel, Schleswig-Holstein, Germany [0001]": {"City": "\ufeffKosel", "PlaceName": "Kosel", "Country": "Germany", "InLocationDB": "TRUE", "lon": "", "Coords": "54.5,9.76667", "lat": "", "FullName": "Kosel, Schleswig-Holstein, Germany", "Region": "Schleswig-Holstein", "id": "Kosel, Schleswig-Holstein, Germany [0001]"}, "Groningen, Groningen, Netherlands [0001]": {"City": "Groningen", "PlaceName": "Groningen", "Country": "Netherlands", "Region": "Groningen", "FullName": "Groningen, Groningen, Netherlands", "_id": "Groningen, Groningen, Netherlands [0001]", "InLocationDB": true}, "Uz\u00e8s, Gard, France [0001]": {"City": "Uz\u00e8s", "PlaceName": "Uz\u00e8s", "Country": "France", "Region": "Gard", "FullName": "Uz\u00e8s, Gard, France", "_id": "Uz\u00e8s, Gard, France [0001]", "InLocationDB": true}, "Li\u00e8ge, province of Li\u00e8ge, Belgium [0001]": {"City": "Li\u00e8ge", "PlaceName": "Li\u00e8ge", "Country": "Belgium", "Region": "province of Li\u00e8ge", "FullName": "Li\u00e8ge, province of Li\u00e8ge, Belgium", "_id": "Li\u00e8ge, province of Li\u00e8ge, Belgium [0001]", "InLocationDB": true}, "Ch\u00e2teauvieux, canton of Geneva, Switzerland [0001]": {"City": "Ch\u00e2teauvieux", "PlaceName": "Ch\u00e2teauvieux", "Country": "Switzerland", "Region": "canton of Geneva", "FullName": "Ch\u00e2teauvieux, canton of Geneva, Switzerland", "_id": "Ch\u00e2teauvieux, canton of Geneva, Switzerland [0001]", "InLocationDB": true}, "Ma\u0142ujowice/Mollwitz, Silesia, Poland [0001]": {"City": "Ma\u0142ujowice/Mollwitz", "PlaceName": "Ma\u0142ujowice/Mollwitz", "Country": "Poland", "Region": "Silesia", "FullName": "Ma\u0142ujowice/Mollwitz, Silesia, Poland", "_id": "Ma\u0142ujowice/Mollwitz, Silesia, Poland [0001]", "InLocationDB": true}, "Aix-en-Provence, Bouches-du-Rh\u00f4ne, France [0001]": {"City": "Aix-en-Provence", "PlaceName": "Aix-en-Provence", "Country": "France", "InLocationDB": true, "lon": 5.44625, "Coords": "43.52641000,5.44625000", "lat": 43.52641, "FullName": "Aix-en-Provence, Bouches-du-Rh\u00f4ne, France", "_id": "Aix-en-Provence, Bouches-du-Rh\u00f4ne, France [0001]", "Region": "Bouches-du-Rh\u00f4ne"}, "Roche, canton of Vaud, Switzerland [0001]": {"City": "\ufeffRoche", "PlaceName": "Roche", "Country": "Switzerland", "InLocationDB": "TRUE", "lon": "", "Coords": "46.361,6.933", "lat": "", "FullName": "Roche, canton of Vaud, Switzerland", "Region": "canton of Vaud", "id": "Roche, canton of Vaud, Switzerland [0001]"}, "near Wassy, Haute-Marne, France [0001]": {"City": "near Wassy", "PlaceName": "near Wassy", "Country": "France", "Region": "Haute-Marne", "FullName": "near Wassy, Haute-Marne, France", "_id": "near Wassy, Haute-Marne, France [0001]", "InLocationDB": true}, "Brussels, Brussels capital region, Belgium [0001]": {"City": "\ufeffBrussels", "PlaceName": "Brussels", "Country": "Belgium", "InLocationDB": "TRUE", "lon": "", "Coords": "50.85045,4.34878", "lat": "", "FullName": "Brussels, Brussels capital region, Belgium", "Region": "Brussels capital region", "id": "Brussels, Brussels capital region, Belgium [0001]"}, "Villers-Cotter\u00eats, Aisne, France [0001]": {"City": "Villers-Cotter\u00eats", "PlaceName": "Villers-Cotter\u00eats", "Country": "France", "Region": "Aisne", "FullName": "Villers-Cotter\u00eats, Aisne, France", "_id": "Villers-Cotter\u00eats, Aisne, France [0001]", "InLocationDB": true}, "ch\u00e2teau de Grand-Cour, near Berne, canton of Bern, Switzerland [0001]": {"City": "ch\u00e2teau de Grand-Cour, near Berne", "PlaceName": "ch\u00e2teau de Grand-Cour, near Berne", "Country": "Switzerland", "Region": "canton of Bern", "FullName": "ch\u00e2teau de Grand-Cour, near Berne, canton of Bern, Switzerland", "_id": "ch\u00e2teau de Grand-Cour, near Berne, canton of Bern, Switzerland [0001]", "InLocationDB": true}, "Peterhof, near St Petersburg, Leningrad province, Russia [0001]": {"City": "\ufeffPeterhof, near St Petersburg", "PlaceName": "Peterhof, near St Petersburg", "Country": "Russia", "InLocationDB": "TRUE", "lon": "", "Coords": "59.88333,29.9", "lat": "", "FullName": "Peterhof, near St Petersburg, Leningrad province, Russia", "Region": "Leningrad province", "id": "Peterhof, near St Petersburg, Leningrad province, Russia [0001]"}, "Uss\u00e9, Indre-et-Loire, France [0001]": {"City": "Uss\u00e9", "PlaceName": "Uss\u00e9", "Country": "France", "Region": "Indre-et-Loire", "FullName": "Uss\u00e9, Indre-et-Loire, France", "_id": "Uss\u00e9, Indre-et-Loire, France [0001]", "InLocationDB": true}, "Pregny-Chamb\u00e9sy, canton of Geneva, Switzerland [0001]": {"City": "Pregny-Chamb\u00e9sy", "PlaceName": "Pregny-Chamb\u00e9sy", "Country": "Switzerland", "Region": "canton of Geneva", "FullName": "Pregny-Chamb\u00e9sy, canton of Geneva, Switzerland", "_id": "Pregny-Chamb\u00e9sy, canton of Geneva, Switzerland [0001]", "InLocationDB": true}, "Doubrane, near Cirey-sur-Blaise, Haute-Marne, France [0001]": {"City": "Doubrane, near Cirey-sur-Blaise", "PlaceName": "Doubrane, near Cirey-sur-Blaise", "Country": "France", "Region": "Haute-Marne", "FullName": "Doubrane, near Cirey-sur-Blaise, Haute-Marne, France", "_id": "Doubrane, near Cirey-sur-Blaise, Haute-Marne, France [0001]", "InLocationDB": true}, "Savillan, Piedmont, France [0001]": {"City": "Savillan", "PlaceName": "Savillan", "Country": "France", "Region": "Piedmont", "FullName": "Savillan, Piedmont, France", "_id": "Savillan, Piedmont, France [0001]", "InLocationDB": true}, "Compi\u00e8gne, Oise, France [0001]": {"City": "Compi\u00e8gne", "PlaceName": "Compi\u00e8gne", "Country": "France", "Region": "Oise", "FullName": "Compi\u00e8gne, Oise, France", "_id": "Compi\u00e8gne, Oise, France [0001]", "InLocationDB": true}, "Kutna Hora, Central Bohemia, Czech Republic [0001]": {"City": "\ufeffKutna Hora", "PlaceName": "Kutna Hora", "Country": "Czech Republic", "InLocationDB": "TRUE", "lon": "", "Coords": "49.94839,15.26816", "lat": "", "FullName": "Kutna Hora, Central Bohemia, Czech Republic", "Region": "Central Bohemia", "id": "Kutna Hora, Central Bohemia, Czech Republic [0001]"}, "Jarville-la-Malgrange, Meurthe-et-Moselle, France [0001]": {"City": "\ufeffJarville-la-Malgrange", "PlaceName": "Jarville-la-Malgrange", "Country": "France", "InLocationDB": "TRUE", "lon": "", "Coords": "48.66907,6.20636", "lat": "", "FullName": "Jarville-la-Malgrange, Meurthe-et-Moselle, France", "Region": "Meurthe-et-Moselle", "id": "Jarville-la-Malgrange, Meurthe-et-Moselle, France [0001]"}, "Basle, canton of Basle, Switzerland [0001]": {"City": "\ufeffBasle", "PlaceName": "Basle", "Country": "Switzerland", "InLocationDB": "TRUE", "lon": "", "Coords": "47.5584,7.57327", "lat": "", "FullName": "Basle, canton of Basle, Switzerland", "Region": "canton of Basle", "id": "Basle, canton of Basle, Switzerland [0001]"}, "M\u00e9zi\u00e8res, Ardennes, France [0001]": {"City": "M\u00e9zi\u00e8res", "PlaceName": "M\u00e9zi\u00e8res", "Country": "France", "Region": "Ardennes", "FullName": "M\u00e9zi\u00e8res, Ardennes, France", "_id": "M\u00e9zi\u00e8res, Ardennes, France [0001]", "InLocationDB": true}, "Brunswick, Lower Saxony, Germany [0001]": {"City": "\ufeffBrunswick", "PlaceName": "Brunswick", "Country": "Germany", "InLocationDB": "TRUE", "lon": "", "Coords": "52.26667,10.53333", "lat": "", "FullName": "Brunswick, Lower Saxony, Germany", "Region": "Lower Saxony", "id": "Brunswick, Lower Saxony, Germany [0001]"}, "Aubenas, Vivarais, France [0001]": {"City": "Aubenas", "PlaceName": "Aubenas", "Country": "France", "Region": "Vivarais", "FullName": "Aubenas, Vivarais, France", "_id": "Aubenas, Vivarais, France [0001]", "InLocationDB": true}, "Auxerre, Bourgogne, France [0001]": {"City": "Auxerre", "PlaceName": "Auxerre", "Country": "France", "Region": "Bourgogne", "FullName": "Auxerre, Bourgogne, France", "_id": "Auxerre, Bourgogne, France [0001]", "InLocationDB": true}, "St-Germain-en-Laye, Yvelines, France [0001]": {"City": "\ufeffSt-Germain-en-Laye", "PlaceName": "St-Germain-en-Laye", "Country": "France", "InLocationDB": "TRUE", "lon": "", "Coords": "48.9,2.08333", "lat": "", "FullName": "St-Germain-en-Laye, Yvelines, France", "Region": "Yvelines", "id": "St-Germain-en-Laye, Yvelines, France [0001]"}, "Hanover, Lower Saxony, Germany [0001]": {"City": "Hanover", "PlaceName": "Hanover", "Country": "Germany", "Region": "Lower Saxony", "FullName": "Hanover, Lower Saxony, Germany", "_id": "Hanover, Lower Saxony, Germany [0001]", "InLocationDB": true}, "Plombi\u00e8res-les-Bains, Vosges, France [0001]": {"City": "Plombi\u00e8res-les-Bains", "PlaceName": "Plombi\u00e8res-les-Bains", "Country": "France", "Region": "Vosges", "FullName": "Plombi\u00e8res-les-Bains, Vosges, France", "_id": "Plombi\u00e8res-les-Bains, Vosges, France [0001]", "InLocationDB": true}, "Cideville, Seine-Maritime, France [0001]": {"City": "\ufeffCideville", "PlaceName": "Cideville", "Country": "France", "InLocationDB": "TRUE", "lon": "", "Coords": "49.61702,0.89803", "lat": "", "FullName": "Cideville, Seine-Maritime, France", "Region": "Seine-Maritime", "id": "Cideville, Seine-Maritime, France [0001]"}, "Aubervilliers, Seine-Saint-Denis, France [0001]": {"City": "Aubervilliers", "PlaceName": "Aubervilliers", "Country": "France", "InLocationDB": true, "lon": 2.38254, "Coords": "48.91339000,2.38254000", "lat": 48.91339, "FullName": "Aubervilliers, Seine-Saint-Denis, France", "_id": "Aubervilliers, Seine-Saint-Denis, France [0001]", "Region": "Seine-Saint-Denis"}, "Stockholm, Stockholm County, Sweden [0001]": {"City": "Stockholm", "PlaceName": "Stockholm", "Country": "Sweden", "InLocationDB": true, "lon": 18.062429, "Coords": "59.33216900,18.06242900", "lat": 59.332169, "FullName": "Stockholm, Stockholm County, Sweden", "_id": "Stockholm, Stockholm County, Sweden [0001]", "Region": "Stockholm County"}, "Gotha, Thuringia, Germany [0001]": {"City": "\ufeffGotha", "PlaceName": "Gotha", "Country": "Germany", "InLocationDB": "TRUE", "lon": "10.70868", "Coords": "50.94961000,10.70868000", "lat": "50.94961", "FullName": "Gotha, Thuringia, Germany", "Region": "Thuringia", "id": "Gotha, Thuringia, Germany [0001]"}, "Rostock, Mecklenburg-Vorpommern, Germany [0001]": {"City": "Rostock", "PlaceName": "Rostock", "Country": "Germany", "Region": "Mecklenburg-Vorpommern", "FullName": "Rostock, Mecklenburg-Vorpommern, Germany", "_id": "Rostock, Mecklenburg-Vorpommern, Germany [0001]", "InLocationDB": true}, "Hundsfeld, Bavaria, Germany [0001]": {"City": "\ufeffHundsfeld", "PlaceName": "Hundsfeld", "Country": "Germany", "InLocationDB": "TRUE", "lon": "", "Coords": "50.06667,9.86667", "lat": "", "FullName": "Hundsfeld, Bavaria, Germany", "Region": "Bavaria", "id": "Hundsfeld, Bavaria, Germany [0001]"}, "Nauen, Brandenburg, Germany [0001]": {"City": "\ufeffNauen", "PlaceName": "Nauen", "Country": "Germany", "InLocationDB": "TRUE", "lon": "", "Coords": "52.60701,12.87374", "lat": "", "FullName": "Nauen, Brandenburg, Germany", "Region": "Brandenburg", "id": "Nauen, Brandenburg, Germany [0001]"}, "Hohenheim, Baden-W\u00fcrttemberg, Germany [0001]": {"City": "Hohenheim", "PlaceName": "Hohenheim", "Country": "Germany", "Region": "Baden-W\u00fcrttemberg", "FullName": "Hohenheim, Baden-W\u00fcrttemberg, Germany", "_id": "Hohenheim, Baden-W\u00fcrttemberg, Germany [0001]", "InLocationDB": true}, "Weissenstein, canton of Solothurn, Switzerland [0001]": {"City": "Weissenstein", "PlaceName": "Weissenstein", "Country": "Switzerland", "Region": "canton of Solothurn", "FullName": "Weissenstein, canton of Solothurn, Switzerland", "_id": "Weissenstein, canton of Solothurn, Switzerland [0001]", "InLocationDB": true}, "Bouillon, province of Luxembourg, Belgium [0001]": {"City": "Bouillon", "PlaceName": "Bouillon", "Country": "Belgium", "Region": "province of Luxembourg", "FullName": "Bouillon, province of Luxembourg, Belgium", "_id": "Bouillon, province of Luxembourg, Belgium [0001]", "InLocationDB": true}, "Wilsdruff, Saxony, Germany [0001]": {"City": "\ufeffWilsdruff", "PlaceName": "Wilsdruff", "Country": "Germany", "InLocationDB": "TRUE", "lon": "", "Coords": "51.05,13.53333", "lat": "", "FullName": "Wilsdruff, Saxony, Germany", "Region": "Saxony", "id": "Wilsdruff, Saxony, Germany [0001]"}, "Monriond, near Lausanne, canton of Vaud, Switzerland [0001]": {"City": "\ufeffMonriond, near Lausanne", "PlaceName": "Monriond, near Lausanne", "Country": "Switzerland", "InLocationDB": "TRUE", "lon": "", "Coords": "46.516,6.63282", "lat": "", "FullName": "Monriond, near Lausanne, canton of Vaud, Switzerland", "Region": "canton of Vaud", "id": "Monriond, near Lausanne, canton of Vaud, Switzerland [0001]"}, "Belley, Ain, France [0001]": {"City": "\ufeffBelley", "PlaceName": "Belley", "Country": "France", "InLocationDB": "TRUE", "lon": "", "Coords": "45.76667,5.68333", "lat": "", "FullName": "Belley, Ain, France", "Region": "Ain", "id": "Belley, Ain, France [0001]"}, "Potsdam, Brandenburg, Germany [0001]": {"City": "\ufeffPotsdam", "PlaceName": "Potsdam", "Country": "Germany", "InLocationDB": "TRUE", "lon": "", "Coords": "52.39886,13.06566", "lat": "", "FullName": "Potsdam, Brandenburg, Germany", "Region": "Brandenburg", "id": "Potsdam, Brandenburg, Germany [0001]"}, "Langres, Haute-Marne, France [0001]": {"City": "Langres", "PlaceName": "Langres", "Country": "France", "Region": "Haute-Marne", "FullName": "Langres, Haute-Marne, France", "_id": "Langres, Haute-Marne, France [0001]", "InLocationDB": true}, "Calais, Pas-de-Calais, France [0001]": {"City": "\ufeffCalais", "PlaceName": "Calais", "Country": "France", "InLocationDB": "TRUE", "lon": "1.85305", "Coords": "50.95308000,1.85305000", "lat": "50.95308", "FullName": "Calais, Pas-de-Calais, France", "Region": "Pas-de-Calais", "id": "Calais, Pas-de-Calais, France [0001]"}, "Louvain, province of Flemish Brabant, Belgium [0001]": {"City": "\ufeffLouvain", "PlaceName": "Louvain", "Country": "Belgium", "InLocationDB": "TRUE", "lon": "", "Coords": "50.87959,4.70093", "lat": "", "FullName": "Louvain, province of Flemish Brabant, Belgium", "Region": "province of Flemish Brabant", "id": "Louvain, province of Flemish Brabant, Belgium [0001]"}, "Dunkerque/Dunkirk, Nord, France [0001]": {"City": "Dunkerque/Dunkirk", "PlaceName": "Dunkerque/Dunkirk", "Country": "France", "Region": "Nord", "FullName": "Dunkerque/Dunkirk, Nord, France", "_id": "Dunkerque/Dunkirk, Nord, France [0001]", "InLocationDB": true}, "Fakener, near Canterbury, Kent, England [0001]": {"City": "Fakener, near Canterbury", "PlaceName": "Fakener, near Canterbury", "Country": "England", "Region": "Kent", "FullName": "Fakener, near Canterbury, Kent, England", "_id": "Fakener, near Canterbury, Kent, England [0001]", "InLocationDB": true}, "Fontainebleau, Seine-et-Marne, France [0001]": {"City": "\ufeffFontainebleau", "PlaceName": "Fontainebleau", "Country": "France", "InLocationDB": "TRUE", "lon": "2.7012", "Coords": "48.40505000,2.70120000", "lat": "48.40505", "FullName": "Fontainebleau, Seine-et-Marne, France", "Region": "Seine-et-Marne", "id": "Fontainebleau, Seine-et-Marne, France [0001]"}, "Fougeray, Ille-et-Vilaine, France [0001]": {"City": "Fougeray", "PlaceName": "Fougeray", "Country": "France", "Region": "Ille-et-Vilaine", "FullName": "Fougeray, Ille-et-Vilaine, France", "_id": "Fougeray, Ille-et-Vilaine, France [0001]", "InLocationDB": true}, "Chefboutonne, Poitou, France [0001]": {"City": "Chefboutonne", "PlaceName": "Chefboutonne", "Country": "France", "Region": "Poitou", "FullName": "Chefboutonne, Poitou, France", "_id": "Chefboutonne, Poitou, France [0001]", "InLocationDB": true}, "Auchinleck, Ayrshire, Scotland [0001]": {"City": "Auchinleck", "PlaceName": "Auchinleck", "Country": "Scotland", "Region": "Ayrshire", "FullName": "Auchinleck, Ayrshire, Scotland", "_id": "Auchinleck, Ayrshire, Scotland [0001]", "InLocationDB": true}, "Toulon, Var, France [0001]": {"City": "Toulon", "PlaceName": "Toulon", "Country": "France", "InLocationDB": true, "lon": 5.930305, "Coords": "43.12532500,5.93030500", "lat": 43.125325, "FullName": "Toulon, Var, France", "_id": "Toulon, Var, France [0001]", "Region": "Var"}, "Av\u00eanes, Flandre, France [0001]": {"City": "Av\u00eanes", "PlaceName": "Av\u00eanes", "Country": "France", "Region": "Flandre", "FullName": "Av\u00eanes, Flandre, France", "_id": "Av\u00eanes, Flandre, France [0001]", "InLocationDB": true}, "Lausanne, canton of Vaud, Switzerland [0001]": {"City": "\ufeffLausanne", "PlaceName": "Lausanne", "Country": "Switzerland", "InLocationDB": "TRUE", "lon": "", "Coords": "46.516,6.63282", "lat": "", "FullName": "Lausanne, canton of Vaud, Switzerland", "Region": "canton of Vaud", "id": "Lausanne, canton of Vaud, Switzerland [0001]"}, "Almaty, province of Almaty, Kazakhstan [0001]": {"City": "Almaty", "PlaceName": "Almaty", "Country": "Kazakhstan", "Region": "province of Almaty", "FullName": "Almaty, province of Almaty, Kazakhstan", "_id": "Almaty, province of Almaty, Kazakhstan [0001]", "InLocationDB": true}, "Besan\u00e7on, Doubs, France [0001]": {"City": "Besan\u00e7on", "PlaceName": "Besan\u00e7on", "Country": "France", "Region": "Doubs", "FullName": "Besan\u00e7on, Doubs, France", "_id": "Besan\u00e7on, Doubs, France [0001]", "InLocationDB": true}, "Rennes, Ille-et-Vilaine, France [0001]": {"City": "Rennes", "PlaceName": "Rennes", "Country": "France", "InLocationDB": true, "lon": -1.68448, "Coords": "48.10752000,-1.68448000", "lat": 48.10752, "FullName": "Rennes, Ille-et-Vilaine, France", "_id": "Rennes, Ille-et-Vilaine, France [0001]", "Region": "Ille-et-Vilaine"}, "Lun\u00e9ville, Meurthe-et-Moselle, France [0001]": {"City": "Lun\u00e9ville", "PlaceName": "Lun\u00e9ville", "Country": "France", "InLocationDB": true, "lon": 6.49027, "Coords": "48.59306000,6.49027000", "lat": 48.59306, "FullName": "Lun\u00e9ville, Meurthe-et-Moselle, France", "_id": "Lun\u00e9ville, Meurthe-et-Moselle, France [0001]", "Region": "Meurthe-et-Moselle"}, "Languedoc region, France [0001]": {"PlaceName": "Languedoc region", "Country": "France", "InLocationDB": true, "FullName": "Languedoc region, France", "_id": "Languedoc region, France [0001]", "Region": "Languedoc region"}, "Moscow, Central district, Russia [0001]": {"City": "\ufeffMoscow", "PlaceName": "Moscow", "Country": "Russia", "InLocationDB": "TRUE", "lon": "", "Coords": "55.75222,37.61556", "lat": "", "FullName": "Moscow, Central district, Russia", "Region": "Central district", "id": "Moscow, Central district, Russia [0001]"}, "Ile St-Pierre, lac de Bienne, canton of Bern, Switzerland [0001]": {"City": "\ufeffIle St-Pierre, lac de Bienne", "PlaceName": "Ile St-Pierre, lac de Bienne", "Country": "Switzerland", "InLocationDB": "TRUE", "lon": "", "Coords": "47.07188,7.143", "lat": "", "FullName": "Ile St-Pierre, lac de Bienne, canton of Bern, Switzerland", "Region": "canton of Bern", "id": "Ile St-Pierre, lac de Bienne, canton of Bern, Switzerland [0001]"}, "Corzier, near Vevey, canton of Vaud, Switzerland [0001]": {"City": "Corzier, near Vevey", "PlaceName": "Corzier, near Vevey", "Country": "Switzerland", "Region": "canton of Vaud", "FullName": "Corzier, near Vevey, canton of Vaud, Switzerland", "_id": "Corzier, near Vevey, canton of Vaud, Switzerland [0001]", "InLocationDB": true}, "Bourdigny, canton of Geneva, Switzerland [0001]": {"City": "\ufeffBourdigny", "PlaceName": "Bourdigny", "Country": "Switzerland", "InLocationDB": "TRUE", "lon": "", "Coords": "46.22477,6.0393", "lat": "", "FullName": "Bourdigny, canton of Geneva, Switzerland", "Region": "canton of Geneva", "id": "Bourdigny, canton of Geneva, Switzerland [0001]"}, "Prangins, near Nyon, canton of Vaud, Switzerland [0001]": {"City": "\ufeffPrangins, near Nyon", "PlaceName": "Prangins, near Nyon", "Country": "Switzerland", "InLocationDB": "TRUE", "lon": "", "Coords": "46.39396,6.24948", "lat": "", "FullName": "Prangins, near Nyon, canton of Vaud, Switzerland", "Region": "canton of Vaud", "id": "Prangins, near Nyon, canton of Vaud, Switzerland [0001]"}, "D\u00f4le, Franche Comt\u00e9, France [0001]": {"City": "D\u00f4le", "PlaceName": "D\u00f4le", "Country": "France", "Region": "Franche Comt\u00e9", "FullName": "D\u00f4le, Franche Comt\u00e9, France", "_id": "D\u00f4le, Franche Comt\u00e9, France [0001]", "InLocationDB": true}, "ch\u00e2teau de Tournay, Pr\u00e9gny-Chamb\u00e9sy, Bourgogne, France [0001]": {"City": "ch\u00e2teau de Tournay, Pr\u00e9gny-Chamb\u00e9sy", "PlaceName": "ch\u00e2teau de Tournay, Pr\u00e9gny-Chamb\u00e9sy", "Country": "France", "Region": "Bourgogne", "FullName": "ch\u00e2teau de Tournay, Pr\u00e9gny-Chamb\u00e9sy, Bourgogne, France", "_id": "ch\u00e2teau de Tournay, Pr\u00e9gny-Chamb\u00e9sy, Bourgogne, France [0001]", "InLocationDB": true}, "Dresden, Saxony, Germany [0001]": {"City": "\ufeffDresden", "PlaceName": "Dresden", "Country": "Germany", "InLocationDB": "TRUE", "lon": "13.74082", "Coords": "51.05365000,13.74082000", "lat": "51.05365", "FullName": "Dresden, Saxony, Germany", "Region": "Saxony", "id": "Dresden, Saxony, Germany [0001]"}, "Lons-le-Saunier, Franche Comt\u00e9, France [0001]": {"City": "Lons-le-Saunier", "PlaceName": "Lons-le-Saunier", "Country": "France", "Region": "Franche Comt\u00e9", "FullName": "Lons-le-Saunier, Franche Comt\u00e9, France", "_id": "Lons-le-Saunier, Franche Comt\u00e9, France [0001]", "InLocationDB": true}, "near Strasbourg, Bas-Rhin, France [0001]": {"City": "\ufeffnear Strasbourg", "PlaceName": "near Strasbourg", "Country": "France", "InLocationDB": "TRUE", "lon": "7.73643", "Coords": "48.58508000,7.73643000", "lat": "48.58508", "FullName": "near Strasbourg, Bas-Rhin, France", "Region": "Bas-Rhin", "id": "near Strasbourg, Bas-Rhin, France [0001]"}, "Collonges, canton of Valais, Switzerland [0001]": {"City": "Collonges", "PlaceName": "Collonges", "Country": "Switzerland", "Region": "canton of Valais", "FullName": "Collonges, canton of Valais, Switzerland", "_id": "Collonges, canton of Valais, Switzerland [0001]", "InLocationDB": true}, "St-Ouen, Seine-Saint-Denis, France [0001]": {"City": "St-Ouen", "PlaceName": "St-Ouen", "Country": "France", "Region": "Seine-Saint-Denis", "FullName": "St-Ouen, Seine-Saint-Denis, France", "_id": "St-Ouen, Seine-Saint-Denis, France [0001]", "InLocationDB": true}, "Troyes, Aube, France [0001]": {"City": "Troyes", "PlaceName": "Troyes", "Country": "France", "Region": "Aube", "FullName": "Troyes, Aube, France", "_id": "Troyes, Aube, France [0001]", "InLocationDB": true}, "Doullens, Somme, France [0001]": {"City": "\ufeffDoullens", "PlaceName": "Doullens", "Country": "France", "InLocationDB": "TRUE", "lon": "", "Coords": "50.15724,2.34019", "lat": "", "FullName": "Doullens, Somme, France", "Region": "Somme", "id": "Doullens, Somme, France [0001]"}, "La Source, Normandie, France [0001]": {"City": "La Source", "PlaceName": "La Source", "Country": "France", "Region": "Normandie", "FullName": "La Source, Normandie, France", "_id": "La Source, Normandie, France [0001]", "InLocationDB": true}, "Pontoise, Paris, Ile-de-France, France [0001]": {"City": "\ufeffPontoise, Paris", "PlaceName": "Pontoise, Paris", "Country": "France", "InLocationDB": "TRUE", "lon": "", "Coords": "49.05,2.1", "lat": "", "FullName": "Pontoise, Paris, Ile-de-France, France", "Region": "Ile-de-France", "id": "Pontoise, Paris, Ile-de-France, France [0001]"}, "Bellefosse, Bas-Rhin, France [0001]": {"City": "\ufeffBellefosse", "PlaceName": "Bellefosse", "Country": "France", "InLocationDB": "TRUE", "lon": "", "Coords": "48.40265,7.2141", "lat": "", "FullName": "Bellefosse, Bas-Rhin, France", "Region": "Bas-Rhin", "id": "Bellefosse, Bas-Rhin, France [0001]"}, "St-Marcel-d'Ard\u00e8che, Ard\u00e8che, France [0001]": {"City": "St-Marcel-d'Ard\u00e8che", "PlaceName": "St-Marcel-d'Ard\u00e8che", "Country": "France", "Region": "Ard\u00e8che", "FullName": "St-Marcel-d'Ard\u00e8che, Ard\u00e8che, France", "_id": "St-Marcel-d'Ard\u00e8che, Ard\u00e8che, France [0001]", "InLocationDB": true}, "Argenteuil, near Paris, Val-d'Oise, France [0001]": {"City": "Argenteuil, near Paris", "PlaceName": "Argenteuil, near Paris", "Country": "France", "Region": "Val-d'Oise", "FullName": "Argenteuil, near Paris, Val-d'Oise, France", "_id": "Argenteuil, near Paris, Val-d'Oise, France [0001]", "InLocationDB": true}, "Kaliningrad, Kaliningrad province, Russia [0001]": {"City": "\ufeffKaliningrad", "PlaceName": "Kaliningrad", "Country": "Russia", "InLocationDB": "TRUE", "lon": "", "Coords": "54.70649,20.51095", "lat": "", "FullName": "Kaliningrad, Kaliningrad province, Russia", "Region": "Kaliningrad province", "id": "Kaliningrad, Kaliningrad province, Russia [0001]"}, "Ruppin, Brandenburg, Germany [0001]": {"City": "\ufeffRuppin", "PlaceName": "Ruppin", "Country": "Germany", "InLocationDB": "TRUE", "lon": "", "Coords": "52.94833,12.848", "lat": "", "FullName": "Ruppin, Brandenburg, Germany", "Region": "Brandenburg", "id": "Ruppin, Brandenburg, Germany [0001]"}, "Brescia, Lombardy, Italy [0001]": {"City": "\ufeffBrescia", "PlaceName": "Brescia", "Country": "Italy", "InLocationDB": "TRUE", "lon": "10.23203", "Coords": "45.53662000,10.23203000", "lat": "45.53662", "FullName": "Brescia, Lombardy, Italy", "Region": "Lombardy", "id": "Brescia, Lombardy, Italy [0001]"}, "near London, Greater London, England [0001]": {"City": "\ufeffnear London", "PlaceName": "near London", "Country": "England", "InLocationDB": "TRUE", "lon": "-0.12714", "Coords": "51.50633000,-0.12714000", "lat": "51.50633", "FullName": "near London, Greater London, England", "Region": "Greater London", "id": "near London, Greater London, England [0001]"}, "St-Loup, ?, France [0001]": {"City": "St-Loup", "PlaceName": "St-Loup", "Country": "France", "Region": "?", "FullName": "St-Loup, ?, France", "_id": "St-Loup, ?, France [0001]", "InLocationDB": true}, "Chamb\u00e9ry, Savoie, France [0001]": {"City": "Chamb\u00e9ry", "PlaceName": "Chamb\u00e9ry", "Country": "France", "InLocationDB": true, "lon": 5.92092, "Coords": "45.56665000,5.92092000", "lat": 45.56665, "FullName": "Chamb\u00e9ry, Savoie, France", "_id": "Chamb\u00e9ry, Savoie, France [0001]", "Region": "Savoie"}, "Corg\u00e9mont, canton of Bern, Switzerland [0001]": {"City": "Corg\u00e9mont", "PlaceName": "Corg\u00e9mont", "Country": "Switzerland", "Region": "canton of Bern", "FullName": "Corg\u00e9mont, canton of Bern, Switzerland", "_id": "Corg\u00e9mont, canton of Bern, Switzerland [0001]", "InLocationDB": true}, "Colmar, Haut-Rhin, France [0001]": {"City": "\ufeffColmar", "PlaceName": "Colmar", "Country": "France", "InLocationDB": "TRUE", "lon": "7.35", "Coords": "48.08330000,7.35000000", "lat": "48.0833", "FullName": "Colmar, Haut-Rhin, France", "Region": "Haut-Rhin", "id": "Colmar, Haut-Rhin, France [0001]"}, "ch\u00e2teau de Chanteloup, Indre-et-Loire, France [0001]": {"City": "ch\u00e2teau de Chanteloup", "PlaceName": "ch\u00e2teau de Chanteloup", "Country": "France", "Region": "Indre-et-Loire", "FullName": "ch\u00e2teau de Chanteloup, Indre-et-Loire, France", "_id": "ch\u00e2teau de Chanteloup, Indre-et-Loire, France [0001]", "InLocationDB": true}, "Grenoble, Is\u00e8re, France [0001]": {"City": "Grenoble", "PlaceName": "Grenoble", "Country": "France", "InLocationDB": true, "lon": 5.7167, "Coords": "45.18330000,5.71670000", "lat": 45.1833, "FullName": "Grenoble, Is\u00e8re, France", "_id": "Grenoble, Is\u00e8re, France [0001]", "Region": "Is\u00e8re"}, "Ch\u00e2teau de Tournay, Pr\u00e9gny-Chamb\u00e9sy, Bourgogne, France [0001]": {"City": "Ch\u00e2teau de Tournay, Pr\u00e9gny-Chamb\u00e9sy", "PlaceName": "Ch\u00e2teau de Tournay, Pr\u00e9gny-Chamb\u00e9sy", "Country": "France", "Region": "Bourgogne", "FullName": "Ch\u00e2teau de Tournay, Pr\u00e9gny-Chamb\u00e9sy, Bourgogne, France", "_id": "Ch\u00e2teau de Tournay, Pr\u00e9gny-Chamb\u00e9sy, Bourgogne, France [0001]", "InLocationDB": true}, "St-Florent, Corsica, France [0001]": {"City": "St-Florent", "PlaceName": "St-Florent", "Country": "France", "Region": "Corsica", "FullName": "St-Florent, Corsica, France", "_id": "St-Florent, Corsica, France [0001]", "InLocationDB": true}, "Turin, Piedmont, Italy [0001]": {"City": "\ufeffTurin", "PlaceName": "Turin", "Country": "Italy", "InLocationDB": "TRUE", "lon": "7.705403", "Coords": "45.06951200,7.70540300", "lat": "45.069512", "FullName": "Turin, Piedmont, Italy", "Region": "Piedmont", "id": "Turin, Piedmont, Italy [0001]"}}